{
"type": "FeatureCollection",
"name": "Arenas",
"crs": { "type": "name", "properties": { "name": "urn:ogc:def:crs:OGC:1.3:CRS84" } },
"features": [
{ "type": "Feature", "properties": { "OBJECTID": 1, "NAME": "Beverly Arena", "ADDRESS": "680 Highway 8", "COMMUNITY": "Flamborough", "PHONE": "519-647-2722" }, "geometry": { "type": "Point", "coordinates": [ -80.1113269823054, 43.298509757066803 ] } },
{ "type": "Feature", "properties": { "OBJECTID": 2, "NAME": "Bill Friday Lawfield Arena", "ADDRESS": "150 Folkstone Avenue", "COMMUNITY": "Hamilton", "PHONE": "905-546-4923" }, "geometry": { "type": "Point", "coordinates": [ -79.850751180487507, 43.214840120091999 ] } },
{ "type": "Feature", "properties": { "OBJECTID": 3, "NAME": "Carlisle Arena", "ADDRESS": "1496 Centre Road", "COMMUNITY": "Flamborough", "PHONE": "905-689-7283" }, "geometry": { "type": "Point", "coordinates": [ -79.981319960761795, 43.396778495121303 ] } },
{ "type": "Feature", "properties": { "OBJECTID": 4, "NAME": "Chedoke Twin Pad Arena", "ADDRESS": "91 Chedmac Drive", "COMMUNITY": "Hamilton", "PHONE": "905-546-2429" }, "geometry": { "type": "Point", "coordinates": [ -79.920599431583696, 43.238669619902502 ] } },
{ "type": "Feature", "properties": { "OBJECTID": 5, "NAME": "Coronation Arena", "ADDRESS": "81 Macklin Street North", "COMMUNITY": "Hamilton", "PHONE": "905-546-3109" }, "geometry": { "type": "Point", "coordinates": [ -79.896260475302398, 43.264644121081702 ] } },
{ "type": "Feature", "properties": { "OBJECTID": 6, "NAME": "Eastwood Arena", "ADDRESS": "111 Burlington Street East", "COMMUNITY": "Hamilton", "PHONE": "905-546-3152" }, "geometry": { "type": "Point", "coordinates": [ -79.8563297984862, 43.272418849188703 ] } },
{ "type": "Feature", "properties": { "OBJECTID": 7, "NAME": "F.H. Sherman Recreation and Learning Centre Arena", "ADDRESS": "388 First Road East", "COMMUNITY": "Stoney Creek", "PHONE": "905-560-5886" }, "geometry": { "type": "Point", "coordinates": [ -79.754388309760998, 43.195661114733198 ] } },
{ "type": "Feature", "properties": { "OBJECTID": 8, "NAME": "FirstOntario Centre", "ADDRESS": "101 York Boulevard", "COMMUNITY": "Hamilton", "PHONE": "905-546-3100" }, "geometry": { "type": "Point", "coordinates": [ -79.872199665803507, 43.259137915640103 ] } },
{ "type": "Feature", "properties": { "OBJECTID": 9, "NAME": "Gateway Ice Centre", "ADDRESS": "610 South Service Road", "COMMUNITY": "Stoney Creek", "PHONE": "905-643-8668" }, "geometry": { "type": "Point", "coordinates": [ -79.699926936851895, 43.228809025469303 ] } },
{ "type": "Feature", "properties": { "OBJECTID": 10, "NAME": "Glanbrook Arena", "ADDRESS": "4300 Binbrook Road", "COMMUNITY": "Glanbrook", "PHONE": "905-692-9331" }, "geometry": { "type": "Point", "coordinates": [ -79.838704981860801, 43.130030028222002 ] } },
{ "type": "Feature", "properties": { "OBJECTID": 11, "NAME": "Hamilton Doublerink Arena", "ADDRESS": "1911 Barton Street East", "COMMUNITY": "Hamilton", "PHONE": "905-545-5894" }, "geometry": { "type": "Point", "coordinates": [ -79.782494552146204, 43.2445813706031 ] } },
{ "type": "Feature", "properties": { "OBJECTID": 12, "NAME": "Harry Howell Arena", "ADDRESS": "27 Highway No. 5 West", "COMMUNITY": "Flamborough", "PHONE": "905-689-6666" }, "geometry": { "type": "Point", "coordinates": [ -79.922788404172493, 43.313088382928598 ] } },
{ "type": "Feature", "properties": { "OBJECTID": 13, "NAME": "Inch Park Arena", "ADDRESS": "400 Queensdale Avenue East", "COMMUNITY": "Hamilton", "PHONE": "905-546-4922" }, "geometry": { "type": "Point", "coordinates": [ -79.859596040635395, 43.237065165463903 ] } },
{ "type": "Feature", "properties": { "OBJECTID": 14, "NAME": "J.L. Grightmire (Market Street) Arena", "ADDRESS": "35 Market Street South", "COMMUNITY": "Dundas", "PHONE": "905-540-6678" }, "geometry": { "type": "Point", "coordinates": [ -79.962521823821106, 43.266013879942001 ] } },
{ "type": "Feature", "properties": { "OBJECTID": 15, "NAME": "Mohawk 4 Ice Centre", "ADDRESS": "710 Mountain Brow Boulevard", "COMMUNITY": "Hamilton", "PHONE": "905-318-5111" }, "geometry": { "type": "Point", "coordinates": [ -79.817125562782095, 43.209472548038399 ] } },
{ "type": "Feature", "properties": { "OBJECTID": 16, "NAME": "Morgan Firestone Arena", "ADDRESS": "385 Jerseyville Road West", "COMMUNITY": "Ancaster", "PHONE": "905-546-3769" }, "geometry": { "type": "Point", "coordinates": [ -80.007616097148301, 43.2180512037502 ] } },
{ "type": "Feature", "properties": { "OBJECTID": 17, "NAME": "Mountain (Dave Andreychuk) Arena", "ADDRESS": "25 Hester Street", "COMMUNITY": "Hamilton", "PHONE": "905-546-4938" }, "geometry": { "type": "Point", "coordinates": [ -79.881234187859903, 43.225161870628497 ] } },
{ "type": "Feature", "properties": { "OBJECTID": 18, "NAME": "Pat Quinn Parkdale Arena", "ADDRESS": "1770 Main Street East", "COMMUNITY": "Hamilton", "PHONE": "905-546-4785" }, "geometry": { "type": "Point", "coordinates": [ -79.793788372076094, 43.236330258129897 ] } },
{ "type": "Feature", "properties": { "OBJECTID": 19, "NAME": "Rosedale Arena", "ADDRESS": "100 Greenhill Avenue", "COMMUNITY": "Hamilton", "PHONE": "905-546-4805" }, "geometry": { "type": "Point", "coordinates": [ -79.8069601335323, 43.218875868255701 ] } },
{ "type": "Feature", "properties": { "OBJECTID": 20, "NAME": "Saltfleet Arena", "ADDRESS": "24 Sherwood Park Road", "COMMUNITY": "Stoney Creek", "PHONE": "905-643-3883" }, "geometry": { "type": "Point", "coordinates": [ -79.704840950746203, 43.2179602203747 ] } },
{ "type": "Feature", "properties": { "OBJECTID": 21, "NAME": "Spring Valley Arena", "ADDRESS": "29 Orchard Drive", "COMMUNITY": "Ancaster", "PHONE": "905-648-4404" }, "geometry": { "type": "Point", "coordinates": [ -79.997796127089302, 43.217163688850299 ] } },
{ "type": "Feature", "properties": { "OBJECTID": 22, "NAME": "Stoney Creek Arena", "ADDRESS": "37 King Street West", "COMMUNITY": "Stoney Creek", "PHONE": "905-662-2426" }, "geometry": { "type": "Point", "coordinates": [ -79.764005809950504, 43.216531897518102 ] } },
{ "type": "Feature", "properties": { "OBJECTID": 23, "NAME": "Valley Park Arena", "ADDRESS": "970 Paramount Drive", "COMMUNITY": "Stoney Creek", "PHONE": "905-546-2424 ext.1185" }, "geometry": { "type": "Point", "coordinates": [ -79.797604793140493, 43.192559618627897 ] } },
{ "type": "Feature", "properties": { "OBJECTID": 24, "NAME": "Wentworth Arenas", "ADDRESS": "1249 Wilson Street East", "COMMUNITY": "Ancaster", "PHONE": "905-525-6233" }, "geometry": { "type": "Point", "coordinates": [ -79.945951670510993, 43.247834342184603 ] } },
{ "type": "Feature", "properties": { "OBJECTID": 25, "NAME": "Westoby (Olympic) Arena", "ADDRESS": "70 Olympic Drive", "COMMUNITY": "Dundas", "PHONE": "905-540-6686" }, "geometry": { "type": "Point", "coordinates": [ -79.934262088051, 43.2728772297055 ] } }
]
}
