{
"type": "FeatureCollection",
"name": "Hamilton_Bike_Share_Incorporated_Hubs",
"crs": { "type": "name", "properties": { "name": "urn:ogc:def:crs:OGC:1.3:CRS84" } },
"features": [
{ "type": "Feature", "properties": { "OBJECTID": 1, "NAME": "Mars at Wentworth - ERI01", "ADDRESS": "100 Mars Avenue, Hamilton", "DESCRIPTION": null, "CURRENT_BIKES": 2, "AVAILABLE_BIKES": 2, "FREE_RACKS": 7, "RACKS_AMOUNT": 9, "LONGITUDE": -79.84364994000001, "LATITUDE": 43.26534016, "LAST_IMPORT_DATE": "2025-02-11T05:00:00Z" }, "geometry": { "type": "Point", "coordinates": [ -79.843649938461297, 43.265340157064102 ] } },
{ "type": "Feature", "properties": { "OBJECTID": 2, "NAME": "Sherman at Barton - ERI02", "ADDRESS": "141-147 Sherman Avenue North, Hamilton", "DESCRIPTION": null, "CURRENT_BIKES": 0, "AVAILABLE_BIKES": 0, "FREE_RACKS": 9, "RACKS_AMOUNT": 9, "LONGITUDE": -79.83628392, "LATITUDE": 43.25632467, "LAST_IMPORT_DATE": "2025-02-11T05:00:00Z" }, "geometry": { "type": "Point", "coordinates": [ -79.836283921585505, 43.2563246719048 ] } },
{ "type": "Feature", "properties": { "OBJECTID": 3, "NAME": "Barton at Lottridge - ERI03", "ADDRESS": "779-781 Barton Street East, Hamilton", "DESCRIPTION": null, "CURRENT_BIKES": 2, "AVAILABLE_BIKES": 2, "FREE_RACKS": 6, "RACKS_AMOUNT": 9, "LONGITUDE": -79.83144522000001, "LATITUDE": 43.25528944, "LAST_IMPORT_DATE": "2025-02-11T05:00:00Z" }, "geometry": { "type": "Point", "coordinates": [ -79.831445217462004, 43.255289437519899 ] } },
{ "type": "Feature", "properties": { "OBJECTID": 4, "NAME": "Barton and Belview - ERI05", "ADDRESS": "954 Barton Street East, Hamilton", "DESCRIPTION": null, "CURRENT_BIKES": 3, "AVAILABLE_BIKES": 3, "FREE_RACKS": 6, "RACKS_AMOUNT": 9, "LONGITUDE": -79.82217215, "LATITUDE": 43.2529105, "LAST_IMPORT_DATE": "2025-02-11T05:00:00Z" }, "geometry": { "type": "Point", "coordinates": [ -79.822172149497305, 43.252910499813296 ] } },
{ "type": "Feature", "properties": { "OBJECTID": 5, "NAME": "Barton at Ottawa - ERI06", "ADDRESS": "437-443 Ottawa Street North, Hamilton", "DESCRIPTION": null, "CURRENT_BIKES": 4, "AVAILABLE_BIKES": 4, "FREE_RACKS": 3, "RACKS_AMOUNT": 7, "LONGITUDE": -79.81602117, "LATITUDE": 43.25147804, "LAST_IMPORT_DATE": "2025-02-11T05:00:00Z" }, "geometry": { "type": "Point", "coordinates": [ -79.8160211746481, 43.251478043097002 ] } },
{ "type": "Feature", "properties": { "OBJECTID": 6, "NAME": "Ottawa at Dunsmure - ERI07", "ADDRESS": "463 Dunsmure Road, Hamilton", "DESCRIPTION": null, "CURRENT_BIKES": 3, "AVAILABLE_BIKES": 3, "FREE_RACKS": 6, "RACKS_AMOUNT": 9, "LONGITUDE": -79.81923044, "LATITUDE": 43.2444466, "LAST_IMPORT_DATE": "2025-02-11T05:00:00Z" }, "geometry": { "type": "Point", "coordinates": [ -79.819230437237195, 43.244446596646497 ] } },
{ "type": "Feature", "properties": { "OBJECTID": 7, "NAME": "Maple at Rothsay - ERI08", "ADDRESS": "394 Maple Avenue, Hamilton", "DESCRIPTION": null, "CURRENT_BIKES": 3, "AVAILABLE_BIKES": 3, "FREE_RACKS": 6, "RACKS_AMOUNT": 9, "LONGITUDE": -79.82500255, "LATITUDE": 43.24216273, "LAST_IMPORT_DATE": "2025-02-11T05:00:00Z" }, "geometry": { "type": "Point", "coordinates": [ -79.825002551131604, 43.2421627327357 ] } },
{ "type": "Feature", "properties": { "OBJECTID": 8, "NAME": "King at Dunsmure - ERI09", "ADDRESS": "304 Dunsmure Road, Hamilton", "DESCRIPTION": null, "CURRENT_BIKES": 1, "AVAILABLE_BIKES": 1, "FREE_RACKS": 8, "RACKS_AMOUNT": 9, "LONGITUDE": -79.82685998, "LATITUDE": 43.24634383, "LAST_IMPORT_DATE": "2025-02-11T05:00:00Z" }, "geometry": { "type": "Point", "coordinates": [ -79.826859980582597, 43.246343825774701 ] } },
{ "type": "Feature", "properties": { "OBJECTID": 9, "NAME": "Dunsmure at Sherman - ERI10", "ADDRESS": "44 Dunsmure Road, Hamilton", "DESCRIPTION": null, "CURRENT_BIKES": 4, "AVAILABLE_BIKES": 4, "FREE_RACKS": 5, "RACKS_AMOUNT": 9, "LONGITUDE": -79.83888835, "LATITUDE": 43.24943274, "LAST_IMPORT_DATE": "2025-02-11T05:00:00Z" }, "geometry": { "type": "Point", "coordinates": [ -79.838888347596793, 43.249432740468002 ] } },
{ "type": "Feature", "properties": { "OBJECTID": 10, "NAME": "King George", "ADDRESS": "75-77 Gage Avenue North, Hamilton", "DESCRIPTION": null, "CURRENT_BIKES": 2, "AVAILABLE_BIKES": 2, "FREE_RACKS": 7, "RACKS_AMOUNT": 9, "LONGITUDE": -79.82740849, "LATITUDE": 43.25112644, "LAST_IMPORT_DATE": "2025-02-11T05:00:00Z" }, "geometry": { "type": "Point", "coordinates": [ -79.827408492226496, 43.25112644336 ] } },
{ "type": "Feature", "properties": { "OBJECTID": 11, "NAME": "Belview at Cannon - ERI12", "ADDRESS": "1065 Cannon Street East, Hamilton", "DESCRIPTION": null, "CURRENT_BIKES": 1, "AVAILABLE_BIKES": 1, "FREE_RACKS": 8, "RACKS_AMOUNT": 9, "LONGITUDE": -79.82342541, "LATITUDE": 43.2489285, "LAST_IMPORT_DATE": "2025-02-11T05:00:00Z" }, "geometry": { "type": "Point", "coordinates": [ -79.823425412160901, 43.248928498029301 ] } },
{ "type": "Feature", "properties": { "OBJECTID": 12, "NAME": "Westinghouse at Barton - ERI13", "ADDRESS": "9 Westinghouse Avenue, Hamilton", "DESCRIPTION": null, "CURRENT_BIKES": 6, "AVAILABLE_BIKES": 6, "FREE_RACKS": 7, "RACKS_AMOUNT": 13, "LONGITUDE": -79.84240606, "LATITUDE": 43.2583192, "LAST_IMPORT_DATE": "2025-02-11T05:00:00Z" }, "geometry": { "type": "Point", "coordinates": [ -79.842406064190698, 43.258319199709099 ] } },
{ "type": "Feature", "properties": { "OBJECTID": 13, "NAME": "George Street", "ADDRESS": "118, George Street, Hess Village, Hamilton, Ontario", "DESCRIPTION": "Sponsored hub.  Installed 2018-02-12", "CURRENT_BIKES": 1, "AVAILABLE_BIKES": 1, "FREE_RACKS": 6, "RACKS_AMOUNT": 7, "LONGITUDE": -79.87894982, "LATITUDE": 43.25851444, "LAST_IMPORT_DATE": "2025-02-11T05:00:00Z" }, "geometry": { "type": "Point", "coordinates": [ -79.878949821149703, 43.258514439806 ] } },
{ "type": "Feature", "properties": { "OBJECTID": 14, "NAME": "James at Vine", "ADDRESS": "108-112 James Street North, Hamilton", "DESCRIPTION": null, "CURRENT_BIKES": 2, "AVAILABLE_BIKES": 2, "FREE_RACKS": 10, "RACKS_AMOUNT": 13, "LONGITUDE": -79.86767516, "LATITUDE": 43.25971184, "LAST_IMPORT_DATE": "2025-02-11T05:00:00Z" }, "geometry": { "type": "Point", "coordinates": [ -79.867675155693405, 43.259711843142703 ] } },
{ "type": "Feature", "properties": { "OBJECTID": 15, "NAME": "Main at Dalewood", "ADDRESS": "1150-1152 Main Street West, Hamilton", "DESCRIPTION": "Blade Racks", "CURRENT_BIKES": 2, "AVAILABLE_BIKES": 2, "FREE_RACKS": 6, "RACKS_AMOUNT": 11, "LONGITUDE": -79.91373807, "LATITUDE": 43.25802512, "LAST_IMPORT_DATE": "2025-02-11T05:00:00Z" }, "geometry": { "type": "Point", "coordinates": [ -79.913738072382699, 43.258025117970597 ] } },
{ "type": "Feature", "properties": { "OBJECTID": 16, "NAME": "Pearl Street Bridge", "ADDRESS": "107 Pearl Street South, Hamilton", "DESCRIPTION": null, "CURRENT_BIKES": 5, "AVAILABLE_BIKES": 5, "FREE_RACKS": 7, "RACKS_AMOUNT": 12, "LONGITUDE": -79.88345325, "LATITUDE": 43.25650634, "LAST_IMPORT_DATE": "2025-02-11T05:00:00Z" }, "geometry": { "type": "Point", "coordinates": [ -79.883453250023905, 43.256506342134301 ] } },
{ "type": "Feature", "properties": { "OBJECTID": 17, "NAME": "Hill Street Park", "ADDRESS": "22 Hill Street, Hamilton", "DESCRIPTION": "Moved from Locke at Melbourne. 2019-04-23", "CURRENT_BIKES": 2, "AVAILABLE_BIKES": 2, "FREE_RACKS": 8, "RACKS_AMOUNT": 10, "LONGITUDE": -79.88822356, "LATITUDE": 43.25672417, "LAST_IMPORT_DATE": "2025-02-11T05:00:00Z" }, "geometry": { "type": "Point", "coordinates": [ -79.8882235590265, 43.256724169601497 ] } },
{ "type": "Feature", "properties": { "OBJECTID": 18, "NAME": "The Chelsea Hub (Augusta near Hughson)", "ADDRESS": "20 Augusta Street, Hamilton", "DESCRIPTION": null, "CURRENT_BIKES": 0, "AVAILABLE_BIKES": 0, "FREE_RACKS": 1, "RACKS_AMOUNT": 3, "LONGITUDE": -79.87000197, "LATITUDE": 43.25192341, "LAST_IMPORT_DATE": "2025-02-11T05:00:00Z" }, "geometry": { "type": "Point", "coordinates": [ -79.870001971729096, 43.251923411847599 ] } },
{ "type": "Feature", "properties": { "OBJECTID": 19, "NAME": "Locke at Herkimer", "ADDRESS": "240-260 Herkimer Street, Hamilton", "DESCRIPTION": null, "CURRENT_BIKES": 0, "AVAILABLE_BIKES": 0, "FREE_RACKS": 5, "RACKS_AMOUNT": 5, "LONGITUDE": -79.88658607000001, "LATITUDE": 43.25249972, "LAST_IMPORT_DATE": "2025-02-11T05:00:00Z" }, "geometry": { "type": "Point", "coordinates": [ -79.8865860695648, 43.2524997160886 ] } },
{ "type": "Feature", "properties": { "OBJECTID": 20, "NAME": "Beasley Park", "ADDRESS": "55 Elgin Street, Hamilton", "DESCRIPTION": null, "CURRENT_BIKES": 5, "AVAILABLE_BIKES": 5, "FREE_RACKS": 5, "RACKS_AMOUNT": 10, "LONGITUDE": -79.86106485000001, "LATITUDE": 43.25891917, "LAST_IMPORT_DATE": "2025-02-11T05:00:00Z" }, "geometry": { "type": "Point", "coordinates": [ -79.861064851675394, 43.258919166736497 ] } },
{ "type": "Feature", "properties": { "OBJECTID": 21, "NAME": "John near King", "ADDRESS": "16 John Street North, Hamilton", "DESCRIPTION": null, "CURRENT_BIKES": 1, "AVAILABLE_BIKES": 1, "FREE_RACKS": 6, "RACKS_AMOUNT": 7, "LONGITUDE": -79.86623146, "LATITUDE": 43.25652795, "LAST_IMPORT_DATE": "2025-02-11T05:00:00Z" }, "geometry": { "type": "Point", "coordinates": [ -79.866231456000804, 43.256527952060999 ] } },
{ "type": "Feature", "properties": { "OBJECTID": 22, "NAME": "King at Barnesdale", "ADDRESS": "976 King Street East, Hamilton", "DESCRIPTION": null, "CURRENT_BIKES": 6, "AVAILABLE_BIKES": 6, "FREE_RACKS": 3, "RACKS_AMOUNT": 9, "LONGITUDE": -79.83547054, "LATITUDE": 43.25124628, "LAST_IMPORT_DATE": "2025-02-11T05:00:00Z" }, "geometry": { "type": "Point", "coordinates": [ -79.835470541899298, 43.2512462786149 ] } },
{ "type": "Feature", "properties": { "OBJECTID": 23, "NAME": "King at Sherman", "ADDRESS": "924, King Street East, Hamilton, Ontario", "DESCRIPTION": null, "CURRENT_BIKES": 3, "AVAILABLE_BIKES": 3, "FREE_RACKS": 4, "RACKS_AMOUNT": 7, "LONGITUDE": -79.83823858, "LATITUDE": 43.25134675, "LAST_IMPORT_DATE": "2025-02-11T05:00:00Z" }, "geometry": { "type": "Point", "coordinates": [ -79.838238582172096, 43.251346751808299 ] } },
{ "type": "Feature", "properties": { "OBJECTID": 24, "NAME": "King at Sanford", "ADDRESS": "735, King Street East, Hamilton, Ontario", "DESCRIPTION": null, "CURRENT_BIKES": 6, "AVAILABLE_BIKES": 6, "FREE_RACKS": 3, "RACKS_AMOUNT": 10, "LONGITUDE": -79.8463583, "LATITUDE": 43.25188413, "LAST_IMPORT_DATE": "2025-02-11T05:00:00Z" }, "geometry": { "type": "Point", "coordinates": [ -79.846358299180096, 43.2518841266835 ] } },
{ "type": "Feature", "properties": { "OBJECTID": 25, "NAME": "Jackson Square", "ADDRESS": "2-44 King Street West, Hamilton", "DESCRIPTION": null, "CURRENT_BIKES": 2, "AVAILABLE_BIKES": 2, "FREE_RACKS": 8, "RACKS_AMOUNT": 10, "LONGITUDE": -79.86957684, "LATITUDE": 43.25693469, "LAST_IMPORT_DATE": "2025-02-11T05:00:00Z" }, "geometry": { "type": "Point", "coordinates": [ -79.869576842117198, 43.256934691287299 ] } },
{ "type": "Feature", "properties": { "OBJECTID": 26, "NAME": "Cannon at Steven", "ADDRESS": "400-408 Cannon Street East, Hamilton", "DESCRIPTION": null, "CURRENT_BIKES": 6, "AVAILABLE_BIKES": 6, "FREE_RACKS": 3, "RACKS_AMOUNT": 10, "LONGITUDE": -79.84998129, "LATITUDE": 43.25646071, "LAST_IMPORT_DATE": "2025-02-11T05:00:00Z" }, "geometry": { "type": "Point", "coordinates": [ -79.8499812932493, 43.256460710440997 ] } },
{ "type": "Feature", "properties": { "OBJECTID": 27, "NAME": "RBG Rock Garden", "ADDRESS": "Rock Garden @ RBG, Hamilton", "DESCRIPTION": "Please lock bikes to RBG bike racks. No HBSI rack ", "CURRENT_BIKES": 0, "AVAILABLE_BIKES": 0, "FREE_RACKS": 14, "RACKS_AMOUNT": 14, "LONGITUDE": -79.891693, "LATITUDE": 43.2894792, "LAST_IMPORT_DATE": "2025-02-11T05:00:00Z" }, "geometry": { "type": "Point", "coordinates": [ -79.891692995533205, 43.289479197395998 ] } },
{ "type": "Feature", "properties": { "OBJECTID": 28, "NAME": "Pier 8", "ADDRESS": "595 Catharine Street North, Hamilton", "DESCRIPTION": null, "CURRENT_BIKES": 2, "AVAILABLE_BIKES": 2, "FREE_RACKS": 13, "RACKS_AMOUNT": 15, "LONGITUDE": -79.85690743000001, "LATITUDE": 43.27528883, "LAST_IMPORT_DATE": "2025-02-11T05:00:00Z" }, "geometry": { "type": "Point", "coordinates": [ -79.8569074275822, 43.275288829446801 ] } },
{ "type": "Feature", "properties": { "OBJECTID": 29, "NAME": "King William at James", "ADDRESS": "39 King William Street, Hamilton", "DESCRIPTION": null, "CURRENT_BIKES": 3, "AVAILABLE_BIKES": 3, "FREE_RACKS": 2, "RACKS_AMOUNT": 6, "LONGITUDE": -79.86848652, "LATITUDE": 43.25763542, "LAST_IMPORT_DATE": "2025-02-11T05:00:00Z" }, "geometry": { "type": "Point", "coordinates": [ -79.868486523241501, 43.2576354167714 ] } },
{ "type": "Feature", "properties": { "OBJECTID": 30, "NAME": "Westdale Aviary", "ADDRESS": "85, Oak Knoll Drive, Westdale, Hamilton, Ontario", "DESCRIPTION": null, "CURRENT_BIKES": 5, "AVAILABLE_BIKES": 5, "FREE_RACKS": 3, "RACKS_AMOUNT": 8, "LONGITUDE": -79.90748048, "LATITUDE": 43.26486897, "LAST_IMPORT_DATE": "2025-02-11T05:00:00Z" }, "geometry": { "type": "Point", "coordinates": [ -79.907480478863604, 43.264868969706797 ] } },
{ "type": "Feature", "properties": { "OBJECTID": 31, "NAME": "RT Steele Park ", "ADDRESS": "76 Ellis Avenue, Hamilton", "DESCRIPTION": null, "CURRENT_BIKES": 4, "AVAILABLE_BIKES": 4, "FREE_RACKS": 2, "RACKS_AMOUNT": 6, "LONGITUDE": -79.81015921, "LATITUDE": 43.24912973, "LAST_IMPORT_DATE": "2025-02-11T05:00:00Z" }, "geometry": { "type": "Point", "coordinates": [ -79.810159206800193, 43.249129726400099 ] } },
{ "type": "Feature", "properties": { "OBJECTID": 32, "NAME": "AM Cunningham Parkette", "ADDRESS": "111 Huxley Avenue North, Hamilton", "DESCRIPTION": null, "CURRENT_BIKES": 1, "AVAILABLE_BIKES": 1, "FREE_RACKS": 5, "RACKS_AMOUNT": 6, "LONGITUDE": -79.81063329, "LATITUDE": 43.24424535, "LAST_IMPORT_DATE": "2025-02-11T05:00:00Z" }, "geometry": { "type": "Point", "coordinates": [ -79.810633286655701, 43.244245352632603 ] } },
{ "type": "Feature", "properties": { "OBJECTID": 33, "NAME": "Main and London - Pipeline Trail Entranc", "ADDRESS": "22, London Street North, Bartonville, Hamilton, Ontario", "DESCRIPTION": null, "CURRENT_BIKES": 0, "AVAILABLE_BIKES": 0, "FREE_RACKS": 6, "RACKS_AMOUNT": 6, "LONGITUDE": -79.81848076, "LATITUDE": 43.24284695, "LAST_IMPORT_DATE": "2025-02-11T05:00:00Z" }, "geometry": { "type": "Point", "coordinates": [ -79.818480760190397, 43.242846945443397 ] } },
{ "type": "Feature", "properties": { "OBJECTID": 34, "NAME": "A.M Cunningham Elementary School", "ADDRESS": "111 Wexford Avenue South, Hamilton", "DESCRIPTION": null, "CURRENT_BIKES": 2, "AVAILABLE_BIKES": 2, "FREE_RACKS": 4, "RACKS_AMOUNT": 6, "LONGITUDE": -79.81432199, "LATITUDE": 43.23768991, "LAST_IMPORT_DATE": "2025-02-11T05:00:00Z" }, "geometry": { "type": "Point", "coordinates": [ -79.814321994962796, 43.237689908067303 ] } },
{ "type": "Feature", "properties": { "OBJECTID": 35, "NAME": "King at Graham", "ADDRESS": "1611 King Street East, Hamilton", "DESCRIPTION": null, "CURRENT_BIKES": 2, "AVAILABLE_BIKES": 2, "FREE_RACKS": 4, "RACKS_AMOUNT": 6, "LONGITUDE": -79.81764995, "LATITUDE": 43.23505581, "LAST_IMPORT_DATE": "2025-02-11T05:00:00Z" }, "geometry": { "type": "Point", "coordinates": [ -79.817649945885506, 43.235055807788797 ] } },
{ "type": "Feature", "properties": { "OBJECTID": 36, "NAME": "MAC Rack JHE ABB @ College Crescent", "ADDRESS": "Arthur Bourns Building, College Crescent, University Gardens, Hamilton, Ontario", "DESCRIPTION": null, "CURRENT_BIKES": 3, "AVAILABLE_BIKES": 3, "FREE_RACKS": 5, "RACKS_AMOUNT": 8, "LONGITUDE": -79.92111683, "LATITUDE": 43.26022667, "LAST_IMPORT_DATE": "2025-02-11T05:00:00Z" }, "geometry": { "type": "Point", "coordinates": [ -79.921116829176498, 43.2602266662972 ] } },
{ "type": "Feature", "properties": { "OBJECTID": 37, "NAME": "MAC Rack HATCH", "ADDRESS": "2000 College Court, McMaster University, Hamilton", "DESCRIPTION": null, "CURRENT_BIKES": 6, "AVAILABLE_BIKES": 6, "FREE_RACKS": 4, "RACKS_AMOUNT": 10, "LONGITUDE": -79.91983876, "LATITUDE": 43.260273, "LAST_IMPORT_DATE": "2025-02-11T05:00:00Z" }, "geometry": { "type": "Point", "coordinates": [ -79.919838756043703, 43.260272996772699 ] } },
{ "type": "Feature", "properties": { "OBJECTID": 38, "NAME": "MAC Rack ITB", "ADDRESS": "2000 College Court, McMaster University, Hamilton", "DESCRIPTION": null, "CURRENT_BIKES": 6, "AVAILABLE_BIKES": 6, "FREE_RACKS": 8, "RACKS_AMOUNT": 14, "LONGITUDE": -79.9205026, "LATITUDE": 43.25917773, "LAST_IMPORT_DATE": "2025-02-11T05:00:00Z" }, "geometry": { "type": "Point", "coordinates": [ -79.920502602719097, 43.259177727297903 ] } },
{ "type": "Feature", "properties": { "OBJECTID": 39, "NAME": "MAC Rack MDCL Kingswalk", "ADDRESS": "18 Forsyth Avenue North, Hamilton", "DESCRIPTION": null, "CURRENT_BIKES": 2, "AVAILABLE_BIKES": 2, "FREE_RACKS": 2, "RACKS_AMOUNT": 4, "LONGITUDE": -79.91671264, "LATITUDE": 43.26063186, "LAST_IMPORT_DATE": "2025-02-11T05:00:00Z" }, "geometry": { "type": "Point", "coordinates": [ -79.916712641409404, 43.260631855685901 ] } },
{ "type": "Feature", "properties": { "OBJECTID": 40, "NAME": "MAC Rack MDCL North", "ADDRESS": "1280 Main Street West, McMaster University, Hamilton", "DESCRIPTION": null, "CURRENT_BIKES": 19, "AVAILABLE_BIKES": 19, "FREE_RACKS": 0, "RACKS_AMOUNT": 4, "LONGITUDE": -79.917005, "LATITUDE": 43.26146701, "LAST_IMPORT_DATE": "2025-02-11T05:00:00Z" }, "geometry": { "type": "Point", "coordinates": [ -79.917005003112095, 43.261467008311598 ] } },
{ "type": "Feature", "properties": { "OBJECTID": 41, "NAME": "MAC Rack Edwards Hall", "ADDRESS": "Stearn Drive, McMaster University, Hamilton", "DESCRIPTION": null, "CURRENT_BIKES": 9, "AVAILABLE_BIKES": 9, "FREE_RACKS": 0, "RACKS_AMOUNT": 6, "LONGITUDE": -79.91880745, "LATITUDE": 43.26392461, "LAST_IMPORT_DATE": "2025-02-11T05:00:00Z" }, "geometry": { "type": "Point", "coordinates": [ -79.918807447128302, 43.263924606444697 ] } },
{ "type": "Feature", "properties": { "OBJECTID": 42, "NAME": "MAC Rack Commons", "ADDRESS": "Stearn Drive, McMaster University, Hamilton", "DESCRIPTION": null, "CURRENT_BIKES": 0, "AVAILABLE_BIKES": 0, "FREE_RACKS": 24, "RACKS_AMOUNT": 24, "LONGITUDE": -79.91893351, "LATITUDE": 43.26553359, "LAST_IMPORT_DATE": "2025-02-11T05:00:00Z" }, "geometry": { "type": "Point", "coordinates": [ -79.918933510229394, 43.265533592341697 ] } },
{ "type": "Feature", "properties": { "OBJECTID": 43, "NAME": "MAC Rack Brandon & Woodstock Halls", "ADDRESS": "Chegwin Trail, Hamilton", "DESCRIPTION": null, "CURRENT_BIKES": 1, "AVAILABLE_BIKES": 1, "FREE_RACKS": 7, "RACKS_AMOUNT": 8, "LONGITUDE": -79.91927952, "LATITUDE": 43.26590945, "LAST_IMPORT_DATE": "2025-02-11T05:00:00Z" }, "geometry": { "type": "Point", "coordinates": [ -79.919279515968, 43.265909449658501 ] } },
{ "type": "Feature", "properties": { "OBJECTID": 44, "NAME": "MAC Rack The Hub", "ADDRESS": "Stearn Drive, McMaster University, Hamilton", "DESCRIPTION": null, "CURRENT_BIKES": 0, "AVAILABLE_BIKES": 0, "FREE_RACKS": 5, "RACKS_AMOUNT": 5, "LONGITUDE": -79.91710961, "LATITUDE": 43.26474256, "LAST_IMPORT_DATE": "2025-02-11T05:00:00Z" }, "geometry": { "type": "Point", "coordinates": [ -79.917109608177896, 43.264742563600201 ] } },
{ "type": "Feature", "properties": { "OBJECTID": 45, "NAME": "MAC Rack IWC Patient Area", "ADDRESS": "120 Forsyth Avenue North, Hamilton", "DESCRIPTION": null, "CURRENT_BIKES": 0, "AVAILABLE_BIKES": 0, "FREE_RACKS": 4, "RACKS_AMOUNT": 4, "LONGITUDE": -79.91486996, "LATITUDE": 43.26544906, "LAST_IMPORT_DATE": "2025-02-11T05:00:00Z" }, "geometry": { "type": "Point", "coordinates": [ -79.914869963670597, 43.265449057532201 ] } },
{ "type": "Feature", "properties": { "OBJECTID": 46, "NAME": "MAC Rack Scholars Rd. at University Ave.", "ADDRESS": "Scholars Road, McMaster University, Hamilton", "DESCRIPTION": null, "CURRENT_BIKES": 21, "AVAILABLE_BIKES": 21, "FREE_RACKS": 0, "RACKS_AMOUNT": 12, "LONGITUDE": -79.91941094000001, "LATITUDE": 43.26278686, "LAST_IMPORT_DATE": "2025-02-11T05:00:00Z" }, "geometry": { "type": "Point", "coordinates": [ -79.919410943498903, 43.262786859073998 ] } },
{ "type": "Feature", "properties": { "OBJECTID": 47, "NAME": "MAC Rack BSB North", "ADDRESS": "Scholars Road, McMaster University, Hamilton", "DESCRIPTION": null, "CURRENT_BIKES": 5, "AVAILABLE_BIKES": 5, "FREE_RACKS": 5, "RACKS_AMOUNT": 10, "LONGITUDE": -79.92055088, "LATITUDE": 43.26251731, "LAST_IMPORT_DATE": "2025-02-11T05:00:00Z" }, "geometry": { "type": "Point", "coordinates": [ -79.920550882840004, 43.262517312152198 ] } },
{ "type": "Feature", "properties": { "OBJECTID": 48, "NAME": "MAC Rack Mary Keyes East", "ADDRESS": "2002 College Court, McMaster University, Hamilton", "DESCRIPTION": null, "CURRENT_BIKES": 0, "AVAILABLE_BIKES": 0, "FREE_RACKS": 14, "RACKS_AMOUNT": 14, "LONGITUDE": -79.92266715, "LATITUDE": 43.26306129, "LAST_IMPORT_DATE": "2025-02-11T05:00:00Z" }, "geometry": { "type": "Point", "coordinates": [ -79.922667145522297, 43.263061287652597 ] } },
{ "type": "Feature", "properties": { "OBJECTID": 49, "NAME": "MAC Rack Bates Hall", "ADDRESS": "Presidents Drive, Hamilton", "DESCRIPTION": null, "CURRENT_BIKES": 1, "AVAILABLE_BIKES": 1, "FREE_RACKS": 1, "RACKS_AMOUNT": 2, "LONGITUDE": -79.92250487, "LATITUDE": 43.2637039, "LAST_IMPORT_DATE": "2025-02-11T05:00:00Z" }, "geometry": { "type": "Point", "coordinates": [ -79.922504872318697, 43.2637038950906 ] } },
{ "type": "Feature", "properties": { "OBJECTID": 50, "NAME": "MAC Rack Go Terminal", "ADDRESS": "Scholars Road, McMaster University, Hamilton", "DESCRIPTION": null, "CURRENT_BIKES": 1, "AVAILABLE_BIKES": 1, "FREE_RACKS": 1, "RACKS_AMOUNT": 2, "LONGITUDE": -79.92258936, "LATITUDE": 43.2617741, "LAST_IMPORT_DATE": "2025-02-11T05:00:00Z" }, "geometry": { "type": "Point", "coordinates": [ -79.922589362146496, 43.261774099033303 ] } },
{ "type": "Feature", "properties": { "OBJECTID": 51, "NAME": "MAC Rack ABB East", "ADDRESS": "2000 College Court, McMaster University, Hamilton", "DESCRIPTION": null, "CURRENT_BIKES": 7, "AVAILABLE_BIKES": 7, "FREE_RACKS": 9, "RACKS_AMOUNT": 16, "LONGITUDE": -79.9210149, "LATITUDE": 43.26075351, "LAST_IMPORT_DATE": "2025-02-11T05:00:00Z" }, "geometry": { "type": "Point", "coordinates": [ -79.921014905393903, 43.260753510087298 ] } },
{ "type": "Feature", "properties": { "OBJECTID": 52, "NAME": "MAC Rack JHE", "ADDRESS": "University Avenue, McMaster University, Hamilton", "DESCRIPTION": null, "CURRENT_BIKES": 10, "AVAILABLE_BIKES": 10, "FREE_RACKS": 12, "RACKS_AMOUNT": 22, "LONGITUDE": -79.91990313, "LATITUDE": 43.2610426, "LAST_IMPORT_DATE": "2025-02-11T05:00:00Z" }, "geometry": { "type": "Point", "coordinates": [ -79.919903129138405, 43.261042597504598 ] } },
{ "type": "Feature", "properties": { "OBJECTID": 53, "NAME": "MAC Rack ITB South", "ADDRESS": ", Hamilton", "DESCRIPTION": null, "CURRENT_BIKES": 1, "AVAILABLE_BIKES": 1, "FREE_RACKS": 5, "RACKS_AMOUNT": 6, "LONGITUDE": -79.92102832, "LATITUDE": 43.25875525, "LAST_IMPORT_DATE": "2025-02-11T05:00:00Z" }, "geometry": { "type": "Point", "coordinates": [ -79.921028316039099, 43.258755252748202 ] } },
{ "type": "Feature", "properties": { "OBJECTID": 54, "NAME": "MAC Rack BSB", "ADDRESS": "Scholars Road, Hamilton", "DESCRIPTION": null, "CURRENT_BIKES": 22, "AVAILABLE_BIKES": 22, "FREE_RACKS": 0, "RACKS_AMOUNT": 12, "LONGITUDE": -79.91998225, "LATITUDE": 43.26214174, "LAST_IMPORT_DATE": "2025-02-11T05:00:00Z" }, "geometry": { "type": "Point", "coordinates": [ -79.919982253919798, 43.2621417392238 ] } },
{ "type": "Feature", "properties": { "OBJECTID": 55, "NAME": "MAC Rack Thode Library", "ADDRESS": "2000 College Court, McMaster University, Hamilton", "DESCRIPTION": null, "CURRENT_BIKES": 2, "AVAILABLE_BIKES": 2, "FREE_RACKS": 4, "RACKS_AMOUNT": 6, "LONGITUDE": -79.92240295000001, "LATITUDE": 43.26070755, "LAST_IMPORT_DATE": "2025-02-11T05:00:00Z" }, "geometry": { "type": "Point", "coordinates": [ -79.922402947784505, 43.260707546137198 ] } },
{ "type": "Feature", "properties": { "OBJECTID": 56, "NAME": "MAC Rack IAHS West", "ADDRESS": "2000 College Court, McMaster University, Hamilton", "DESCRIPTION": null, "CURRENT_BIKES": 0, "AVAILABLE_BIKES": 0, "FREE_RACKS": 4, "RACKS_AMOUNT": 4, "LONGITUDE": -79.92139444, "LATITUDE": 43.2594985, "LAST_IMPORT_DATE": "2025-02-11T05:00:00Z" }, "geometry": { "type": "Point", "coordinates": [ -79.9213944370033, 43.259498502435903 ] } },
{ "type": "Feature", "properties": { "OBJECTID": 57, "NAME": "MAC Rack Hedden Hall", "ADDRESS": "Stearn Drive, McMaster University, Hamilton", "DESCRIPTION": null, "CURRENT_BIKES": 0, "AVAILABLE_BIKES": 0, "FREE_RACKS": 2, "RACKS_AMOUNT": 2, "LONGITUDE": -79.9185285, "LATITUDE": 43.26616781, "LAST_IMPORT_DATE": "2025-02-11T05:00:00Z" }, "geometry": { "type": "Point", "coordinates": [ -79.918528497350096, 43.266167811286699 ] } },
{ "type": "Feature", "properties": { "OBJECTID": 58, "NAME": "MAC Rack General Science Building", "ADDRESS": "Scholars Road, Hamilton", "DESCRIPTION": null, "CURRENT_BIKES": 0, "AVAILABLE_BIKES": 0, "FREE_RACKS": 2, "RACKS_AMOUNT": 2, "LONGITUDE": -79.92134884, "LATITUDE": 43.2622253, "LAST_IMPORT_DATE": "2025-02-11T05:00:00Z" }, "geometry": { "type": "Point", "coordinates": [ -79.9213488405573, 43.262225301858201 ] } },
{ "type": "Feature", "properties": { "OBJECTID": 59, "NAME": "MAC Rack West Quad", "ADDRESS": "Scholars Road, Hamilton", "DESCRIPTION": null, "CURRENT_BIKES": 0, "AVAILABLE_BIKES": 0, "FREE_RACKS": 3, "RACKS_AMOUNT": 4, "LONGITUDE": -79.92209986, "LATITUDE": 43.26304176, "LAST_IMPORT_DATE": "2025-02-11T05:00:00Z" }, "geometry": { "type": "Point", "coordinates": [ -79.922099858039502, 43.263041755421803 ] } },
{ "type": "Feature", "properties": { "OBJECTID": 60, "NAME": "MAC Rack PGCLL", "ADDRESS": "Stearn Drive, McMaster University, Hamilton", "DESCRIPTION": null, "CURRENT_BIKES": 0, "AVAILABLE_BIKES": 0, "FREE_RACKS": 4, "RACKS_AMOUNT": 6, "LONGITUDE": -79.91857678, "LATITUDE": 43.26511452, "LAST_IMPORT_DATE": "2025-02-11T05:00:00Z" }, "geometry": { "type": "Point", "coordinates": [ -79.918576776445207, 43.265114518639599 ] } },
{ "type": "Feature", "properties": { "OBJECTID": 61, "NAME": "MAC Rack LR Wilson", "ADDRESS": "Sterling Street, McMaster University, Hamilton", "DESCRIPTION": null, "CURRENT_BIKES": 5, "AVAILABLE_BIKES": 5, "FREE_RACKS": 19, "RACKS_AMOUNT": 24, "LONGITUDE": -79.91658926, "LATITUDE": 43.26220925, "LAST_IMPORT_DATE": "2025-02-11T05:00:00Z" }, "geometry": { "type": "Point", "coordinates": [ -79.916589260501198, 43.262209248889697 ] } },
{ "type": "Feature", "properties": { "OBJECTID": 62, "NAME": "MAC Rack Lot B", "ADDRESS": "Stearn Drive, McMaster University, Hamilton", "DESCRIPTION": null, "CURRENT_BIKES": 0, "AVAILABLE_BIKES": 0, "FREE_RACKS": 4, "RACKS_AMOUNT": 4, "LONGITUDE": -79.91657048, "LATITUDE": 43.26348807, "LAST_IMPORT_DATE": "2025-02-11T05:00:00Z" }, "geometry": { "type": "Point", "coordinates": [ -79.916570484311706, 43.263488065556501 ] } },
{ "type": "Feature", "properties": { "OBJECTID": 63, "NAME": "MAC Rack DeGroote School of Business", "ADDRESS": "DeGroote School of Business, Stearn Drive, Westdale, Hamilton, Ontario", "DESCRIPTION": null, "CURRENT_BIKES": 2, "AVAILABLE_BIKES": 2, "FREE_RACKS": 0, "RACKS_AMOUNT": 2, "LONGITUDE": -79.91634049, "LATITUDE": 43.26381691, "LAST_IMPORT_DATE": "2025-02-11T05:00:00Z" }, "geometry": { "type": "Point", "coordinates": [ -79.916340485398607, 43.263816906562496 ] } },
{ "type": "Feature", "properties": { "OBJECTID": 64, "NAME": "MAC Rack TSH", "ADDRESS": "Stearn Drive, McMaster University, Hamilton", "DESCRIPTION": null, "CURRENT_BIKES": 16, "AVAILABLE_BIKES": 16, "FREE_RACKS": 0, "RACKS_AMOUNT": 14, "LONGITUDE": -79.91794646, "LATITUDE": 43.26457502, "LAST_IMPORT_DATE": "2025-02-11T05:00:00Z" }, "geometry": { "type": "Point", "coordinates": [ -79.917946457265302, 43.264575017619201 ] } },
{ "type": "Feature", "properties": { "OBJECTID": 65, "NAME": "MAC Rack CRL North", "ADDRESS": "University Avenue, Hamilton", "DESCRIPTION": null, "CURRENT_BIKES": 6, "AVAILABLE_BIKES": 6, "FREE_RACKS": 0, "RACKS_AMOUNT": 2, "LONGITUDE": -79.91937608000001, "LATITUDE": 43.25938088, "LAST_IMPORT_DATE": "2025-02-11T05:00:00Z" }, "geometry": { "type": "Point", "coordinates": [ -79.919376075317103, 43.259380874837902 ] } },
{ "type": "Feature", "properties": { "OBJECTID": 66, "NAME": "MAC Rack Divinity College East", "ADDRESS": "1280 Main Street West, Hamilton", "DESCRIPTION": null, "CURRENT_BIKES": 1, "AVAILABLE_BIKES": 1, "FREE_RACKS": 1, "RACKS_AMOUNT": 2, "LONGITUDE": -79.91769835, "LATITUDE": 43.26164225, "LAST_IMPORT_DATE": "2025-02-11T05:00:00Z" }, "geometry": { "type": "Point", "coordinates": [ -79.917698353131499, 43.261642253845402 ] } },
{ "type": "Feature", "properties": { "OBJECTID": 67, "NAME": "MAC Rack Temporary Lecture Theater", "ADDRESS": "1280 Main Street West, McMaster University, Hamilton", "DESCRIPTION": null, "CURRENT_BIKES": 0, "AVAILABLE_BIKES": 0, "FREE_RACKS": 6, "RACKS_AMOUNT": 6, "LONGITUDE": -79.91757229, "LATITUDE": 43.26141763, "LAST_IMPORT_DATE": "2025-02-11T05:00:00Z" }, "geometry": { "type": "Point", "coordinates": [ -79.917572290280503, 43.261417627656598 ] } },
{ "type": "Feature", "properties": { "OBJECTID": 68, "NAME": "MAC Rack Soccer Field", "ADDRESS": "120 Forsyth Avenue North, Hamilton", "DESCRIPTION": null, "CURRENT_BIKES": 1, "AVAILABLE_BIKES": 1, "FREE_RACKS": 1, "RACKS_AMOUNT": 2, "LONGITUDE": -79.91404921, "LATITUDE": 43.26613125, "LAST_IMPORT_DATE": "2025-02-11T05:00:00Z" }, "geometry": { "type": "Point", "coordinates": [ -79.914049208033504, 43.266131251265101 ] } },
{ "type": "Feature", "properties": { "OBJECTID": 69, "NAME": "MAC Rack CRL South", "ADDRESS": "University Avenue, McMaster University, Hamilton", "DESCRIPTION": null, "CURRENT_BIKES": 0, "AVAILABLE_BIKES": 0, "FREE_RACKS": 2, "RACKS_AMOUNT": 2, "LONGITUDE": -79.91943642, "LATITUDE": 43.25895938, "LAST_IMPORT_DATE": "2025-02-11T05:00:00Z" }, "geometry": { "type": "Point", "coordinates": [ -79.919436425400406, 43.258959378658901 ] } },
{ "type": "Feature", "properties": { "OBJECTID": 70, "NAME": "MAC Rack Childrens Centre", "ADDRESS": "Westaway Road, Hamilton", "DESCRIPTION": null, "CURRENT_BIKES": 1, "AVAILABLE_BIKES": 1, "FREE_RACKS": 1, "RACKS_AMOUNT": 2, "LONGITUDE": -79.92722958, "LATITUDE": 43.26372151, "LAST_IMPORT_DATE": "2025-02-11T05:00:00Z" }, "geometry": { "type": "Point", "coordinates": [ -79.927229582869501, 43.263721510828297 ] } },
{ "type": "Feature", "properties": { "OBJECTID": 71, "NAME": "McMaster Parking Lot M", "ADDRESS": "Westaway Road, Hamilton", "DESCRIPTION": null, "CURRENT_BIKES": 8, "AVAILABLE_BIKES": 8, "FREE_RACKS": 17, "RACKS_AMOUNT": 26, "LONGITUDE": -79.92895424, "LATITUDE": 43.26239176, "LAST_IMPORT_DATE": "2025-02-11T05:00:00Z" }, "geometry": { "type": "Point", "coordinates": [ -79.928954243258602, 43.262391755698403 ] } },
{ "type": "Feature", "properties": { "OBJECTID": 72, "NAME": "Mac Rack - Performance Ctr.", "ADDRESS": "120 Forsyth Avenue North, Hamilton", "DESCRIPTION": null, "CURRENT_BIKES": 8, "AVAILABLE_BIKES": 8, "FREE_RACKS": 0, "RACKS_AMOUNT": 4, "LONGITUDE": -79.91440326, "LATITUDE": 43.26587735, "LAST_IMPORT_DATE": "2025-02-11T05:00:00Z" }, "geometry": { "type": "Point", "coordinates": [ -79.914403259622503, 43.265877344429597 ] } },
{ "type": "Feature", "properties": { "OBJECTID": 73, "NAME": "Mac Track", "ADDRESS": "Stearn Drive, Hamilton", "DESCRIPTION": null, "CURRENT_BIKES": 1, "AVAILABLE_BIKES": 1, "FREE_RACKS": 6, "RACKS_AMOUNT": 8, "LONGITUDE": -79.91634786, "LATITUDE": 43.2670057, "LAST_IMPORT_DATE": "2025-02-11T05:00:00Z" }, "geometry": { "type": "Point", "coordinates": [ -79.916347861490607, 43.267005695835898 ] } },
{ "type": "Feature", "properties": { "OBJECTID": 74, "NAME": "Mac Rack Kingswalk Bridge", "ADDRESS": "1280 Main Street West, McMaster University, Hamilton", "DESCRIPTION": null, "CURRENT_BIKES": 0, "AVAILABLE_BIKES": 0, "FREE_RACKS": 8, "RACKS_AMOUNT": 8, "LONGITUDE": -79.91715118, "LATITUDE": 43.26059432, "LAST_IMPORT_DATE": "2025-02-11T05:00:00Z" }, "geometry": { "type": "Point", "coordinates": [ -79.9171511824741, 43.260594315227998 ] } },
{ "type": "Feature", "properties": { "OBJECTID": 75, "NAME": "Gore Park", "ADDRESS": "20 King Street East, Hamilton", "DESCRIPTION": null, "CURRENT_BIKES": 4, "AVAILABLE_BIKES": 4, "FREE_RACKS": 11, "RACKS_AMOUNT": 16, "LONGITUDE": -79.86866355, "LATITUDE": 43.25631686, "LAST_IMPORT_DATE": "2025-02-11T05:00:00Z" }, "geometry": { "type": "Point", "coordinates": [ -79.868663549237795, 43.2563168585936 ] } },
{ "type": "Feature", "properties": { "OBJECTID": 76, "NAME": "James North at Mulberry", "ADDRESS": "200 James Street North, Hamilton", "DESCRIPTION": null, "CURRENT_BIKES": 14, "AVAILABLE_BIKES": 14, "FREE_RACKS": 5, "RACKS_AMOUNT": 20, "LONGITUDE": -79.86674309, "LATITUDE": 43.26181945, "LAST_IMPORT_DATE": "2025-02-11T05:00:00Z" }, "geometry": { "type": "Point", "coordinates": [ -79.866743087682295, 43.2618194520565 ] } },
{ "type": "Feature", "properties": { "OBJECTID": 77, "NAME": "Seedworks", "ADDRESS": "126 Catharine Street North, Hamilton", "DESCRIPTION": "Outside SoBi Hamilton Office", "CURRENT_BIKES": 1, "AVAILABLE_BIKES": 1, "FREE_RACKS": 6, "RACKS_AMOUNT": 8, "LONGITUDE": -79.86361295, "LATITUDE": 43.25911119, "LAST_IMPORT_DATE": "2025-02-11T05:00:00Z" }, "geometry": { "type": "Point", "coordinates": [ -79.8636129496292, 43.259111191074503 ] } },
{ "type": "Feature", "properties": { "OBJECTID": 78, "NAME": "Cootes at York and King", "ADDRESS": "10 Cootes Drive, Hamilton", "DESCRIPTION": null, "CURRENT_BIKES": 3, "AVAILABLE_BIKES": 3, "FREE_RACKS": 11, "RACKS_AMOUNT": 15, "LONGITUDE": -79.94965553, "LATITUDE": 43.26558132, "LAST_IMPORT_DATE": "2025-02-11T05:00:00Z" }, "geometry": { "type": "Point", "coordinates": [ -79.949655532411001, 43.265581322149998 ] } },
{ "type": "Feature", "properties": { "OBJECTID": 79, "NAME": "Osler at Grant", "ADDRESS": "89-101 Osler Drive, Hamilton", "DESCRIPTION": null, "CURRENT_BIKES": 4, "AVAILABLE_BIKES": 4, "FREE_RACKS": 7, "RACKS_AMOUNT": 12, "LONGITUDE": -79.94264344, "LATITUDE": 43.25954961, "LAST_IMPORT_DATE": "2025-02-11T05:00:00Z" }, "geometry": { "type": "Point", "coordinates": [ -79.942643444375804, 43.259549604632099 ] } },
{ "type": "Feature", "properties": { "OBJECTID": 80, "NAME": "Main at Whitney", "ADDRESS": "1850, Main Street West, University Gardens, Ancaster, Hamilton, Ontario", "DESCRIPTION": null, "CURRENT_BIKES": 2, "AVAILABLE_BIKES": 2, "FREE_RACKS": 8, "RACKS_AMOUNT": 11, "LONGITUDE": -79.93979037, "LATITUDE": 43.25205235, "LAST_IMPORT_DATE": "2025-02-11T05:00:00Z" }, "geometry": { "type": "Point", "coordinates": [ -79.939790368063399, 43.252052348569997 ] } },
{ "type": "Feature", "properties": { "OBJECTID": 81, "NAME": "Osler at Main", "ADDRESS": "1686 Main Street West, Hamilton", "DESCRIPTION": null, "CURRENT_BIKES": 4, "AVAILABLE_BIKES": 4, "FREE_RACKS": 5, "RACKS_AMOUNT": 10, "LONGITUDE": -79.93422554, "LATITUDE": 43.25725394, "LAST_IMPORT_DATE": "2025-02-11T05:00:00Z" }, "geometry": { "type": "Point", "coordinates": [ -79.934225541008402, 43.257253942881199 ] } },
{ "type": "Feature", "properties": { "OBJECTID": 82, "NAME": "Whitney at Lower Horning", "ADDRESS": "377, Whitney Avenue, University Gardens, Hamilton, Ontario", "DESCRIPTION": null, "CURRENT_BIKES": 6, "AVAILABLE_BIKES": 6, "FREE_RACKS": 11, "RACKS_AMOUNT": 17, "LONGITUDE": -79.93541989000001, "LATITUDE": 43.25185224, "LAST_IMPORT_DATE": "2025-02-11T05:00:00Z" }, "geometry": { "type": "Point", "coordinates": [ -79.935419893648103, 43.251852234494002 ] } },
{ "type": "Feature", "properties": { "OBJECTID": 83, "NAME": "Sanders at Binkley", "ADDRESS": "58, Sanders Boulevard, University Gardens, Hamilton, Ontario", "DESCRIPTION": null, "CURRENT_BIKES": 3, "AVAILABLE_BIKES": 3, "FREE_RACKS": 6, "RACKS_AMOUNT": 10, "LONGITUDE": -79.92979914, "LATITUDE": 43.25875373, "LAST_IMPORT_DATE": "2025-02-11T05:00:00Z" }, "geometry": { "type": "Point", "coordinates": [ -79.929799139101704, 43.258753726415598 ] } },
{ "type": "Feature", "properties": { "OBJECTID": 84, "NAME": "Sanders at Hollywood", "ADDRESS": "26, Sanders Boulevard, University Gardens, Hamilton, Ontario", "DESCRIPTION": null, "CURRENT_BIKES": 9, "AVAILABLE_BIKES": 9, "FREE_RACKS": 4, "RACKS_AMOUNT": 13, "LONGITUDE": -79.92648109, "LATITUDE": 43.25990317, "LAST_IMPORT_DATE": "2025-02-11T05:00:00Z" }, "geometry": { "type": "Point", "coordinates": [ -79.926481089881705, 43.259903166308703 ] } },
{ "type": "Feature", "properties": { "OBJECTID": 85, "NAME": "King at Cline", "ADDRESS": "1108 King Street West, Hamilton", "DESCRIPTION": null, "CURRENT_BIKES": 4, "AVAILABLE_BIKES": 4, "FREE_RACKS": 8, "RACKS_AMOUNT": 13, "LONGITUDE": -79.90929484, "LATITUDE": 43.26053678, "LAST_IMPORT_DATE": "2025-02-11T05:00:00Z" }, "geometry": { "type": "Point", "coordinates": [ -79.9092948352326, 43.260536783750297 ] } },
{ "type": "Feature", "properties": { "OBJECTID": 86, "NAME": "Sterling at Whitton", "ADDRESS": "139, Sterling Street, Westdale, Hamilton, Ontario", "DESCRIPTION": null, "CURRENT_BIKES": 2, "AVAILABLE_BIKES": 2, "FREE_RACKS": 12, "RACKS_AMOUNT": 15, "LONGITUDE": -79.91336588, "LATITUDE": 43.26222716, "LAST_IMPORT_DATE": "2025-02-11T05:00:00Z" }, "geometry": { "type": "Point", "coordinates": [ -79.913365884098098, 43.262227162123303 ] } },
{ "type": "Feature", "properties": { "OBJECTID": 87, "NAME": "Sterling at Haddon", "ADDRESS": "71 Sterling Street, Hamilton", "DESCRIPTION": null, "CURRENT_BIKES": 3, "AVAILABLE_BIKES": 3, "FREE_RACKS": 7, "RACKS_AMOUNT": 13, "LONGITUDE": -79.91026729, "LATITUDE": 43.26202552, "LAST_IMPORT_DATE": "2025-02-11T05:00:00Z" }, "geometry": { "type": "Point", "coordinates": [ -79.910267293321198, 43.262025520825603 ] } },
{ "type": "Feature", "properties": { "OBJECTID": 88, "NAME": "Westdale Library", "ADDRESS": "955 King Street West, Hamilton", "DESCRIPTION": null, "CURRENT_BIKES": 0, "AVAILABLE_BIKES": 0, "FREE_RACKS": 8, "RACKS_AMOUNT": 9, "LONGITUDE": -79.90359664, "LATITUDE": 43.26271599, "LAST_IMPORT_DATE": "2025-02-11T05:00:00Z" }, "geometry": { "type": "Point", "coordinates": [ -79.903596639489095, 43.262715993315098 ] } },
{ "type": "Feature", "properties": { "OBJECTID": 89, "NAME": "Emerson at Whitney", "ADDRESS": "202, Emerson Street, University Gardens, Hamilton, Ontario", "DESCRIPTION": null, "CURRENT_BIKES": 14, "AVAILABLE_BIKES": 14, "FREE_RACKS": 4, "RACKS_AMOUNT": 20, "LONGITUDE": -79.92221582000001, "LATITUDE": 43.25214232, "LAST_IMPORT_DATE": "2025-02-11T05:00:00Z" }, "geometry": { "type": "Point", "coordinates": [ -79.922215816635401, 43.2521423201677 ] } },
{ "type": "Feature", "properties": { "OBJECTID": 90, "NAME": "Rail Trail at Emerson", "ADDRESS": "Hamilton Brantford Rail Trail, Emerson Street, Westdale, Hamilton, Ontario", "DESCRIPTION": null, "CURRENT_BIKES": 18, "AVAILABLE_BIKES": 18, "FREE_RACKS": 9, "RACKS_AMOUNT": 28, "LONGITUDE": -79.92080282000001, "LATITUDE": 43.25467459, "LAST_IMPORT_DATE": "2025-02-11T05:00:00Z" }, "geometry": { "type": "Point", "coordinates": [ -79.920802815389706, 43.254674586783899 ] } },
{ "type": "Feature", "properties": { "OBJECTID": 91, "NAME": "Westdale Village", "ADDRESS": "25 Marion Avenue South, Hamilton", "DESCRIPTION": null, "CURRENT_BIKES": 9, "AVAILABLE_BIKES": 9, "FREE_RACKS": 8, "RACKS_AMOUNT": 18, "LONGITUDE": -79.90508795, "LATITUDE": 43.26201478, "LAST_IMPORT_DATE": "2025-02-11T05:00:00Z" }, "geometry": { "type": "Point", "coordinates": [ -79.905087947882805, 43.262014778034001 ] } },
{ "type": "Feature", "properties": { "OBJECTID": 92, "NAME": "Rail Trail at Stroud", "ADDRESS": "Hamilton Brantford Rail Trail, Emerson Street, Westdale, Hamilton, Ontario", "DESCRIPTION": null, "CURRENT_BIKES": 9, "AVAILABLE_BIKES": 9, "FREE_RACKS": 2, "RACKS_AMOUNT": 12, "LONGITUDE": -79.91661528, "LATITUDE": 43.25359164, "LAST_IMPORT_DATE": "2025-02-11T05:00:00Z" }, "geometry": { "type": "Point", "coordinates": [ -79.916615275188903, 43.253591637115697 ] } },
{ "type": "Feature", "properties": { "OBJECTID": 93, "NAME": "Main at Columbia College", "ADDRESS": "82 Newton Avenue, Hamilton", "DESCRIPTION": null, "CURRENT_BIKES": 6, "AVAILABLE_BIKES": 6, "FREE_RACKS": 4, "RACKS_AMOUNT": 12, "LONGITUDE": -79.90785867, "LATITUDE": 43.25856718, "LAST_IMPORT_DATE": "2025-02-11T05:00:00Z" }, "geometry": { "type": "Point", "coordinates": [ -79.907858670240799, 43.258567180015802 ] } },
{ "type": "Feature", "properties": { "OBJECTID": 94, "NAME": "Longwood at King", "ADDRESS": "881, King Street West, Westdale, Hamilton, Ontario", "DESCRIPTION": null, "CURRENT_BIKES": 6, "AVAILABLE_BIKES": 6, "FREE_RACKS": 3, "RACKS_AMOUNT": 10, "LONGITUDE": -79.90094184, "LATITUDE": 43.26301746, "LAST_IMPORT_DATE": "2025-02-11T05:00:00Z" }, "geometry": { "type": "Point", "coordinates": [ -79.900941842658995, 43.263017456159098 ] } },
{ "type": "Feature", "properties": { "OBJECTID": 95, "NAME": "Longwood at Edgevale", "ADDRESS": "78, Longwood Road North, Westdale, Hamilton, Ontario", "DESCRIPTION": null, "CURRENT_BIKES": 6, "AVAILABLE_BIKES": 6, "FREE_RACKS": 7, "RACKS_AMOUNT": 15, "LONGITUDE": -79.89930945, "LATITUDE": 43.26621122, "LAST_IMPORT_DATE": "2025-02-11T05:00:00Z" }, "geometry": { "type": "Point", "coordinates": [ -79.899309450722697, 43.2662112206948 ] } },
{ "type": "Feature", "properties": { "OBJECTID": 96, "NAME": "Chedoke Stairs", "ADDRESS": "Chedoke Park, Hamilton, Ontario", "DESCRIPTION": null, "CURRENT_BIKES": 3, "AVAILABLE_BIKES": 3, "FREE_RACKS": 8, "RACKS_AMOUNT": 11, "LONGITUDE": -79.9082378, "LATITUDE": 43.24608026, "LAST_IMPORT_DATE": "2025-02-11T05:00:00Z" }, "geometry": { "type": "Point", "coordinates": [ -79.908237797407907, 43.246080261485197 ] } },
{ "type": "Feature", "properties": { "OBJECTID": 97, "NAME": "Main at Longwood", "ADDRESS": "122 Longwood Road South, Hamilton", "DESCRIPTION": null, "CURRENT_BIKES": 6, "AVAILABLE_BIKES": 6, "FREE_RACKS": 3, "RACKS_AMOUNT": 9, "LONGITUDE": -79.90210265, "LATITUDE": 43.25960441, "LAST_IMPORT_DATE": "2025-02-11T05:00:00Z" }, "geometry": { "type": "Point", "coordinates": [ -79.902102649512102, 43.259604410420799 ] } },
{ "type": "Feature", "properties": { "OBJECTID": 98, "NAME": "Macklin at King", "ADDRESS": "768, King Street West, McMaster Innovation Park, Hamilton, Ontario", "DESCRIPTION": null, "CURRENT_BIKES": 1, "AVAILABLE_BIKES": 1, "FREE_RACKS": 12, "RACKS_AMOUNT": 14, "LONGITUDE": -79.8964982, "LATITUDE": 43.26216728, "LAST_IMPORT_DATE": "2025-02-11T05:00:00Z" }, "geometry": { "type": "Point", "coordinates": [ -79.8964982028278, 43.262167279262201 ] } },
{ "type": "Feature", "properties": { "OBJECTID": 99, "NAME": "McMaster Innovation Park", "ADDRESS": "175 Longwood Road South, Hamilton", "DESCRIPTION": "Large sign removed. \r\nWave racks.", "CURRENT_BIKES": 1, "AVAILABLE_BIKES": 1, "FREE_RACKS": 16, "RACKS_AMOUNT": 17, "LONGITUDE": -79.90116924, "LATITUDE": 43.25656885, "LAST_IMPORT_DATE": "2025-02-11T05:00:00Z" }, "geometry": { "type": "Point", "coordinates": [ -79.901169240338902, 43.256568851352199 ] } },
{ "type": "Feature", "properties": { "OBJECTID": 100, "NAME": "Dundurn Stairs", "ADDRESS": "534, Dundurn Street South, Chedoke Park, Hamilton, Ontario", "DESCRIPTION": null, "CURRENT_BIKES": 6, "AVAILABLE_BIKES": 6, "FREE_RACKS": 5, "RACKS_AMOUNT": 12, "LONGITUDE": -79.89477876, "LATITUDE": 43.24652141, "LAST_IMPORT_DATE": "2025-02-11T05:00:00Z" }, "geometry": { "type": "Point", "coordinates": [ -79.894778756303694, 43.246521413377501 ] } },
{ "type": "Feature", "properties": { "OBJECTID": 101, "NAME": "Dundurn at Aberdeen", "ADDRESS": "330-346 Dundurn Street South, Hamilton", "DESCRIPTION": null, "CURRENT_BIKES": 5, "AVAILABLE_BIKES": 5, "FREE_RACKS": 18, "RACKS_AMOUNT": 24, "LONGITUDE": -79.89265591, "LATITUDE": 43.25145846, "LAST_IMPORT_DATE": "2025-02-11T05:00:00Z" }, "geometry": { "type": "Point", "coordinates": [ -79.892655909364706, 43.251458457820597 ] } },
{ "type": "Feature", "properties": { "OBJECTID": 102, "NAME": "Dundurn St S", "ADDRESS": "229-233 Dundurn Street South, Hamilton", "DESCRIPTION": null, "CURRENT_BIKES": 6, "AVAILABLE_BIKES": 6, "FREE_RACKS": 6, "RACKS_AMOUNT": 12, "LONGITUDE": -79.89090677, "LATITUDE": 43.25481276, "LAST_IMPORT_DATE": "2025-02-11T05:00:00Z" }, "geometry": { "type": "Point", "coordinates": [ -79.890906774186305, 43.2548127599444 ] } },
{ "type": "Feature", "properties": { "OBJECTID": 103, "NAME": "Main at Dundurn", "ADDRESS": "91 Dundurn Street South, Hamilton", "DESCRIPTION": null, "CURRENT_BIKES": 6, "AVAILABLE_BIKES": 6, "FREE_RACKS": 4, "RACKS_AMOUNT": 11, "LONGITUDE": -79.88920927, "LATITUDE": 43.25966301, "LAST_IMPORT_DATE": "2025-02-11T05:00:00Z" }, "geometry": { "type": "Point", "coordinates": [ -79.889209271025607, 43.2596630100387 ] } },
{ "type": "Feature", "properties": { "OBJECTID": 104, "NAME": "King at Dundurn", "ADDRESS": "9-11 Dundurn Street North, Hamilton", "DESCRIPTION": null, "CURRENT_BIKES": 10, "AVAILABLE_BIKES": 10, "FREE_RACKS": 0, "RACKS_AMOUNT": 10, "LONGITUDE": -79.88798082, "LATITUDE": 43.26240934, "LAST_IMPORT_DATE": "2025-02-11T05:00:00Z" }, "geometry": { "type": "Point", "coordinates": [ -79.8879808187245, 43.262409335133803 ] } },
{ "type": "Feature", "properties": { "OBJECTID": 105, "NAME": "Charlton at Locke", "ADDRESS": "321 Charlton Avenue West, Hamilton", "DESCRIPTION": null, "CURRENT_BIKES": 0, "AVAILABLE_BIKES": 0, "FREE_RACKS": 13, "RACKS_AMOUNT": 13, "LONGITUDE": -79.88663435, "LATITUDE": 43.25332705, "LAST_IMPORT_DATE": "2025-02-11T05:00:00Z" }, "geometry": { "type": "Point", "coordinates": [ -79.886634350216099, 43.253327044623603 ] } },
{ "type": "Feature", "properties": { "OBJECTID": 106, "NAME": "Locke at Hunter", "ADDRESS": "137, Locke Street South, Hess Village, Hamilton, Ontario", "DESCRIPTION": null, "CURRENT_BIKES": 2, "AVAILABLE_BIKES": 2, "FREE_RACKS": 8, "RACKS_AMOUNT": 10, "LONGITUDE": -79.88510147, "LATITUDE": 43.25655616, "LAST_IMPORT_DATE": "2025-02-11T05:00:00Z" }, "geometry": { "type": "Point", "coordinates": [ -79.885101467970401, 43.256556154383297 ] } },
{ "type": "Feature", "properties": { "OBJECTID": 107, "NAME": "Locke at Napier", "ADDRESS": "64, Locke Street North, Hess Village, Hamilton, Ontario", "DESCRIPTION": null, "CURRENT_BIKES": 5, "AVAILABLE_BIKES": 5, "FREE_RACKS": 5, "RACKS_AMOUNT": 12, "LONGITUDE": -79.88273673, "LATITUDE": 43.26280188, "LAST_IMPORT_DATE": "2025-02-11T05:00:00Z" }, "geometry": { "type": "Point", "coordinates": [ -79.882736730331104, 43.262801879622799 ] } },
{ "type": "Feature", "properties": { "OBJECTID": 108, "NAME": "York at Inchbury", "ADDRESS": "460 York Boulevard, Hamilton", "DESCRIPTION": null, "CURRENT_BIKES": 2, "AVAILABLE_BIKES": 2, "FREE_RACKS": 7, "RACKS_AMOUNT": 13, "LONGITUDE": -79.88194959, "LATITUDE": 43.26591461, "LAST_IMPORT_DATE": "2025-02-11T05:00:00Z" }, "geometry": { "type": "Point", "coordinates": [ -79.881949591217193, 43.265914609724099 ] } },
{ "type": "Feature", "properties": { "OBJECTID": 109, "NAME": "Aberdeen at Queen", "ADDRESS": "ABERDEEN at SPRUCESIDE, Hamilton", "DESCRIPTION": null, "CURRENT_BIKES": 1, "AVAILABLE_BIKES": 1, "FREE_RACKS": 12, "RACKS_AMOUNT": 13, "LONGITUDE": -79.8836994, "LATITUDE": 43.24880856, "LAST_IMPORT_DATE": "2025-02-11T05:00:00Z" }, "geometry": { "type": "Point", "coordinates": [ -79.883699398795002, 43.248808557312401 ] } },
{ "type": "Feature", "properties": { "OBJECTID": 110, "NAME": "Charlton at Queen", "ADDRESS": "195 Charlton Avenue West, Hamilton", "DESCRIPTION": "Temporary relocation of Herkimer/Queen hub during ", "CURRENT_BIKES": 9, "AVAILABLE_BIKES": 9, "FREE_RACKS": 1, "RACKS_AMOUNT": 10, "LONGITUDE": -79.88158643, "LATITUDE": 43.25200742, "LAST_IMPORT_DATE": "2025-02-11T05:00:00Z" }, "geometry": { "type": "Point", "coordinates": [ -79.881586432591206, 43.2520074158002 ] } },
{ "type": "Feature", "properties": { "OBJECTID": 111, "NAME": "H.A.A.A. Park", "ADDRESS": "251 Duke Street, Hamilton", "DESCRIPTION": null, "CURRENT_BIKES": 10, "AVAILABLE_BIKES": 10, "FREE_RACKS": 2, "RACKS_AMOUNT": 12, "LONGITUDE": -79.8819466, "LATITUDE": 43.25406516, "LAST_IMPORT_DATE": "2025-02-11T05:00:00Z" }, "geometry": { "type": "Point", "coordinates": [ -79.881946603106201, 43.254065160651301 ] } },
{ "type": "Feature", "properties": { "OBJECTID": 112, "NAME": "Hunter at Hess", "ADDRESS": "131-133 Hess Street South, Hamilton", "DESCRIPTION": null, "CURRENT_BIKES": 1, "AVAILABLE_BIKES": 1, "FREE_RACKS": 15, "RACKS_AMOUNT": 16, "LONGITUDE": -79.87889618, "LATITUDE": 43.25538311, "LAST_IMPORT_DATE": "2025-02-11T05:00:00Z" }, "geometry": { "type": "Point", "coordinates": [ -79.878896176690503, 43.255383106404501 ] } },
{ "type": "Feature", "properties": { "OBJECTID": 113, "NAME": "Queen at Peter", "ADDRESS": "80, Queen Street North, Hess Village, Hamilton, Ontario", "DESCRIPTION": null, "CURRENT_BIKES": 1, "AVAILABLE_BIKES": 1, "FREE_RACKS": 11, "RACKS_AMOUNT": 12, "LONGITUDE": -79.87760601, "LATITUDE": 43.26188613, "LAST_IMPORT_DATE": "2025-02-11T05:00:00Z" }, "geometry": { "type": "Point", "coordinates": [ -79.877606006593695, 43.261886132651199 ] } },
{ "type": "Feature", "properties": { "OBJECTID": 114, "NAME": "Oxford at York", "ADDRESS": "40-48 Oxford Street, Hamilton", "DESCRIPTION": null, "CURRENT_BIKES": 5, "AVAILABLE_BIKES": 5, "FREE_RACKS": 7, "RACKS_AMOUNT": 12, "LONGITUDE": -79.87779379, "LATITUDE": 43.26456373, "LAST_IMPORT_DATE": "2025-02-11T05:00:00Z" }, "geometry": { "type": "Point", "coordinates": [ -79.877793788435099, 43.264563725507898 ] } },
{ "type": "Feature", "properties": { "OBJECTID": 115, "NAME": "Durand Park", "ADDRESS": "250 Park Street South, Hamilton", "DESCRIPTION": null, "CURRENT_BIKES": 3, "AVAILABLE_BIKES": 3, "FREE_RACKS": 11, "RACKS_AMOUNT": 15, "LONGITUDE": -79.87574995, "LATITUDE": 43.24978616, "LAST_IMPORT_DATE": "2025-02-11T05:00:00Z" }, "geometry": { "type": "Point", "coordinates": [ -79.875749945893702, 43.249786156781298 ] } },
{ "type": "Feature", "properties": { "OBJECTID": 116, "NAME": "James S at Charlton", "ADDRESS": "232 James Street South, Hamilton", "DESCRIPTION": null, "CURRENT_BIKES": 1, "AVAILABLE_BIKES": 1, "FREE_RACKS": 9, "RACKS_AMOUNT": 10, "LONGITUDE": -79.87205557, "LATITUDE": 43.24963545, "LAST_IMPORT_DATE": "2025-02-11T05:00:00Z" }, "geometry": { "type": "Point", "coordinates": [ -79.872055571975196, 43.249635448796198 ] } },
{ "type": "Feature", "properties": { "OBJECTID": 117, "NAME": "Bay at Bold", "ADDRESS": "100 Bold Street, Hamilton", "DESCRIPTION": null, "CURRENT_BIKES": 2, "AVAILABLE_BIKES": 2, "FREE_RACKS": 9, "RACKS_AMOUNT": 12, "LONGITUDE": -79.87539356000001, "LATITUDE": 43.25383023, "LAST_IMPORT_DATE": "2025-02-11T05:00:00Z" }, "geometry": { "type": "Point", "coordinates": [ -79.875393561402205, 43.253830225545499 ] } },
{ "type": "Feature", "properties": { "OBJECTID": 118, "NAME": "City Hall", "ADDRESS": "58 Bay Street South, Hamilton", "DESCRIPTION": null, "CURRENT_BIKES": 7, "AVAILABLE_BIKES": 7, "FREE_RACKS": 9, "RACKS_AMOUNT": 17, "LONGITUDE": -79.87449876, "LATITUDE": 43.25613249, "LAST_IMPORT_DATE": "2025-02-11T05:00:00Z" }, "geometry": { "type": "Point", "coordinates": [ -79.874498755988597, 43.256132485429603 ] } },
{ "type": "Feature", "properties": { "OBJECTID": 119, "NAME": "Bay at York", "ADDRESS": "55 Bay Street North, Hamilton", "DESCRIPTION": null, "CURRENT_BIKES": 4, "AVAILABLE_BIKES": 4, "FREE_RACKS": 17, "RACKS_AMOUNT": 24, "LONGITUDE": -79.87338692, "LATITUDE": 43.25906138, "LAST_IMPORT_DATE": "2025-02-11T05:00:00Z" }, "geometry": { "type": "Point", "coordinates": [ -79.873386918998406, 43.259061380157803 ] } },
{ "type": "Feature", "properties": { "OBJECTID": 120, "NAME": "Bay at Mulberry", "ADDRESS": "177, Bay Street North, Hess Village, Hamilton, Ontario", "DESCRIPTION": null, "CURRENT_BIKES": 5, "AVAILABLE_BIKES": 5, "FREE_RACKS": 9, "RACKS_AMOUNT": 14, "LONGITUDE": -79.87180308000001, "LATITUDE": 43.26319844, "LAST_IMPORT_DATE": "2025-02-11T05:00:00Z" }, "geometry": { "type": "Point", "coordinates": [ -79.871803075468804, 43.263198440962398 ] } },
{ "type": "Feature", "properties": { "OBJECTID": 121, "NAME": "Bay at Strachan", "ADDRESS": "325 Bay Street North, Hamilton", "DESCRIPTION": null, "CURRENT_BIKES": 4, "AVAILABLE_BIKES": 4, "FREE_RACKS": 19, "RACKS_AMOUNT": 25, "LONGITUDE": -79.86792326, "LATITUDE": 43.26785865, "LAST_IMPORT_DATE": "2025-02-11T05:00:00Z" }, "geometry": { "type": "Point", "coordinates": [ -79.867923259858799, 43.267858644706301 ] } },
{ "type": "Feature", "properties": { "OBJECTID": 122, "NAME": "Bayfront Park", "ADDRESS": "Harbour Front Drive, North End, Hamilton, Ontario", "DESCRIPTION": null, "CURRENT_BIKES": 3, "AVAILABLE_BIKES": 3, "FREE_RACKS": 30, "RACKS_AMOUNT": 35, "LONGITUDE": -79.87132698000001, "LATITUDE": 43.26928828, "LAST_IMPORT_DATE": "2025-02-11T05:00:00Z" }, "geometry": { "type": "Point", "coordinates": [ -79.871326982875999, 43.269288275007099 ] } },
{ "type": "Feature", "properties": { "OBJECTID": 123, "NAME": "Ainslie at Emerson", "ADDRESS": "65 Ainslie Avenue, Hamilton", "DESCRIPTION": null, "CURRENT_BIKES": 9, "AVAILABLE_BIKES": 9, "FREE_RACKS": 2, "RACKS_AMOUNT": 12, "LONGITUDE": -79.92344226, "LATITUDE": 43.24951812, "LAST_IMPORT_DATE": "2025-02-11T05:00:00Z" }, "geometry": { "type": "Point", "coordinates": [ -79.923442262251896, 43.249518114352 ] } },
{ "type": "Feature", "properties": { "OBJECTID": 124, "NAME": "Strachan at Mary", "ADDRESS": "101 Strachan Street East, Hamilton", "DESCRIPTION": null, "CURRENT_BIKES": 3, "AVAILABLE_BIKES": 3, "FREE_RACKS": 5, "RACKS_AMOUNT": 9, "LONGITUDE": -79.8604238, "LATITUDE": 43.26593875, "LAST_IMPORT_DATE": "2025-02-11T05:00:00Z" }, "geometry": { "type": "Point", "coordinates": [ -79.860423803938005, 43.265938746550603 ] } },
{ "type": "Feature", "properties": { "OBJECTID": 125, "NAME": "Hughson at Picton", "ADDRESS": "448, Hughson Street North, North End, Hamilton, Ontario", "DESCRIPTION": null, "CURRENT_BIKES": 3, "AVAILABLE_BIKES": 3, "FREE_RACKS": 9, "RACKS_AMOUNT": 12, "LONGITUDE": -79.86162666, "LATITUDE": 43.27011692, "LAST_IMPORT_DATE": "2025-02-11T05:00:00Z" }, "geometry": { "type": "Point", "coordinates": [ -79.861626657399597, 43.270116921314802 ] } },
{ "type": "Feature", "properties": { "OBJECTID": 126, "NAME": "Discovery Drive", "ADDRESS": "Waterfront Trail, Hamilton", "DESCRIPTION": null, "CURRENT_BIKES": 1, "AVAILABLE_BIKES": 1, "FREE_RACKS": 23, "RACKS_AMOUNT": 25, "LONGITUDE": -79.86029774, "LATITUDE": 43.27606685, "LAST_IMPORT_DATE": "2025-02-11T05:00:00Z" }, "geometry": { "type": "Point", "coordinates": [ -79.860297739903103, 43.276066845041697 ] } },
{ "type": "Feature", "properties": { "OBJECTID": 127, "NAME": "Eastwood Arena", "ADDRESS": "111, Burlington Street East, North End, Hamilton, Ontario", "DESCRIPTION": null, "CURRENT_BIKES": 4, "AVAILABLE_BIKES": 4, "FREE_RACKS": 6, "RACKS_AMOUNT": 13, "LONGITUDE": -79.85671144, "LATITUDE": 43.27162127, "LAST_IMPORT_DATE": "2025-02-11T05:00:00Z" }, "geometry": { "type": "Point", "coordinates": [ -79.856711442476694, 43.271621270572098 ] } },
{ "type": "Feature", "properties": { "OBJECTID": 128, "NAME": "Catharine at Forest", "ADDRESS": "175 Catharine Street South, Hamilton", "DESCRIPTION": null, "CURRENT_BIKES": 3, "AVAILABLE_BIKES": 3, "FREE_RACKS": 9, "RACKS_AMOUNT": 12, "LONGITUDE": -79.86779508, "LATITUDE": 43.24966481, "LAST_IMPORT_DATE": "2025-02-11T05:00:00Z" }, "geometry": { "type": "Point", "coordinates": [ -79.867795076210399, 43.249664809855602 ] } },
{ "type": "Feature", "properties": { "OBJECTID": 129, "NAME": "Main at Macnab", "ADDRESS": "50 Main Street West, Hamilton", "DESCRIPTION": null, "CURRENT_BIKES": 3, "AVAILABLE_BIKES": 3, "FREE_RACKS": 9, "RACKS_AMOUNT": 12, "LONGITUDE": -79.87145036, "LATITUDE": 43.25586952, "LAST_IMPORT_DATE": "2025-02-11T05:00:00Z" }, "geometry": { "type": "Point", "coordinates": [ -79.871450364855093, 43.255869519202797 ] } },
{ "type": "Feature", "properties": { "OBJECTID": 130, "NAME": "Ferguson at Barton", "ADDRESS": "186, Ferguson Avenue North, Beasley, Hamilton, Ontario", "DESCRIPTION": null, "CURRENT_BIKES": 7, "AVAILABLE_BIKES": 7, "FREE_RACKS": 2, "RACKS_AMOUNT": 10, "LONGITUDE": -79.85824232, "LATITUDE": 43.26205698, "LAST_IMPORT_DATE": "2025-02-11T05:00:00Z" }, "geometry": { "type": "Point", "coordinates": [ -79.858242316896806, 43.262056981962999 ] } },
{ "type": "Feature", "properties": { "OBJECTID": 131, "NAME": "Ferrie at Ferguson", "ADDRESS": "206, Ferrie Street East, North End, Hamilton, Ontario", "DESCRIPTION": null, "CURRENT_BIKES": 3, "AVAILABLE_BIKES": 3, "FREE_RACKS": 4, "RACKS_AMOUNT": 7, "LONGITUDE": -79.85489845, "LATITUDE": 43.26661795, "LAST_IMPORT_DATE": "2025-02-11T05:00:00Z" }, "geometry": { "type": "Point", "coordinates": [ -79.854898452721599, 43.2666179436847 ] } },
{ "type": "Feature", "properties": { "OBJECTID": 132, "NAME": "Ferguson at Cannon", "ADDRESS": "156, Cannon Street East, Beasley, Hamilton, Ontario", "DESCRIPTION": null, "CURRENT_BIKES": 6, "AVAILABLE_BIKES": 6, "FREE_RACKS": 4, "RACKS_AMOUNT": 10, "LONGITUDE": -79.85982285, "LATITUDE": 43.25875084, "LAST_IMPORT_DATE": "2025-02-11T05:00:00Z" }, "geometry": { "type": "Point", "coordinates": [ -79.859822845294005, 43.258750835339598 ] } },
{ "type": "Feature", "properties": { "OBJECTID": 133, "NAME": "Ferguson at King William", "ADDRESS": "4-12 Ferguson Avenue North, Hamilton", "DESCRIPTION": null, "CURRENT_BIKES": 5, "AVAILABLE_BIKES": 5, "FREE_RACKS": 3, "RACKS_AMOUNT": 10, "LONGITUDE": -79.86144311, "LATITUDE": 43.25517925, "LAST_IMPORT_DATE": "2025-02-11T05:00:00Z" }, "geometry": { "type": "Point", "coordinates": [ -79.861443109214804, 43.255179247960598 ] } },
{ "type": "Feature", "properties": { "OBJECTID": 134, "NAME": "Victoria at Barton", "ADDRESS": "286-300 Victoria Avenue North, Hamilton", "DESCRIPTION": null, "CURRENT_BIKES": 1, "AVAILABLE_BIKES": 1, "FREE_RACKS": 9, "RACKS_AMOUNT": 10, "LONGITUDE": -79.85331863, "LATITUDE": 43.26124519, "LAST_IMPORT_DATE": "2025-02-11T05:00:00Z" }, "geometry": { "type": "Point", "coordinates": [ -79.853318631525298, 43.261245189294399 ] } },
{ "type": "Feature", "properties": { "OBJECTID": 135, "NAME": "Cannon at East", "ADDRESS": "326, Cannon Street East, Beasley, Hamilton, Ontario", "DESCRIPTION": null, "CURRENT_BIKES": 4, "AVAILABLE_BIKES": 4, "FREE_RACKS": 5, "RACKS_AMOUNT": 9, "LONGITUDE": -79.85334814, "LATITUDE": 43.25729553, "LAST_IMPORT_DATE": "2025-02-11T05:00:00Z" }, "geometry": { "type": "Point", "coordinates": [ -79.853348135386199, 43.257295524027803 ] } },
{ "type": "Feature", "properties": { "OBJECTID": 136, "NAME": "Wentworth Stairs", "ADDRESS": "203 Wentworth Street South, Hamilton", "DESCRIPTION": null, "CURRENT_BIKES": 3, "AVAILABLE_BIKES": 3, "FREE_RACKS": 10, "RACKS_AMOUNT": 15, "LONGITUDE": -79.85186353, "LATITUDE": 43.24487937, "LAST_IMPORT_DATE": "2025-02-11T05:00:00Z" }, "geometry": { "type": "Point", "coordinates": [ -79.851863533050604, 43.244879366424598 ] } },
{ "type": "Feature", "properties": { "OBJECTID": 137, "NAME": "Stinson at Blythe", "ADDRESS": "12-38 Blythe Street, Hamilton", "DESCRIPTION": null, "CURRENT_BIKES": 0, "AVAILABLE_BIKES": 0, "FREE_RACKS": 9, "RACKS_AMOUNT": 11, "LONGITUDE": -79.85509841, "LATITUDE": 43.24802822, "LAST_IMPORT_DATE": "2025-02-11T05:00:00Z" }, "geometry": { "type": "Point", "coordinates": [ -79.855098405368807, 43.248028221646003 ] } },
{ "type": "Feature", "properties": { "OBJECTID": 138, "NAME": "Hunter at Ferguson", "ADDRESS": "175, Hunter Street East, Corktown, Hamilton, Ontario", "DESCRIPTION": null, "CURRENT_BIKES": 9, "AVAILABLE_BIKES": 9, "FREE_RACKS": 1, "RACKS_AMOUNT": 10, "LONGITUDE": -79.86318782, "LATITUDE": 43.25179838, "LAST_IMPORT_DATE": "2025-02-11T05:00:00Z" }, "geometry": { "type": "Point", "coordinates": [ -79.863187819698695, 43.251798382566001 ] } },
{ "type": "Feature", "properties": { "OBJECTID": 139, "NAME": "Corktown Park", "ADDRESS": "174, Ferguson Avenue South, Corktown, Hamilton, Ontario", "DESCRIPTION": null, "CURRENT_BIKES": 3, "AVAILABLE_BIKES": 3, "FREE_RACKS": 6, "RACKS_AMOUNT": 9, "LONGITUDE": -79.86414615, "LATITUDE": 43.24925525, "LAST_IMPORT_DATE": "2025-02-11T05:00:00Z" }, "geometry": { "type": "Point", "coordinates": [ -79.864146149662005, 43.249255250502401 ] } },
{ "type": "Feature", "properties": { "OBJECTID": 140, "NAME": "Stinson at West", "ADDRESS": "93, West Avenue South, Corktown, Hamilton, Ontario", "DESCRIPTION": null, "CURRENT_BIKES": 2, "AVAILABLE_BIKES": 2, "FREE_RACKS": 10, "RACKS_AMOUNT": 12, "LONGITUDE": -79.85972611, "LATITUDE": 43.24949856, "LAST_IMPORT_DATE": "2025-02-11T05:00:00Z" }, "geometry": { "type": "Point", "coordinates": [ -79.8597261112361, 43.249498556511703 ] } },
{ "type": "Feature", "properties": { "OBJECTID": 141, "NAME": "King William at Victoria", "ADDRESS": "338, King William Street, Beasley, Hamilton, Ontario", "DESCRIPTION": null, "CURRENT_BIKES": 3, "AVAILABLE_BIKES": 3, "FREE_RACKS": 7, "RACKS_AMOUNT": 10, "LONGITUDE": -79.85582381, "LATITUDE": 43.25415436, "LAST_IMPORT_DATE": "2025-02-11T05:00:00Z" }, "geometry": { "type": "Point", "coordinates": [ -79.855823815314196, 43.254154361585101 ] } },
{ "type": "Feature", "properties": { "OBJECTID": 142, "NAME": "Barton at Wentworth", "ADDRESS": "501 Barton Street East, Hamilton", "DESCRIPTION": null, "CURRENT_BIKES": 5, "AVAILABLE_BIKES": 5, "FREE_RACKS": 5, "RACKS_AMOUNT": 10, "LONGITUDE": -79.84495819, "LATITUDE": 43.25893246, "LAST_IMPORT_DATE": "2025-02-11T05:00:00Z" }, "geometry": { "type": "Point", "coordinates": [ -79.844958185568501, 43.2589324593173 ] } },
{ "type": "Feature", "properties": { "OBJECTID": 143, "NAME": "Cannon at Wentworth - 96", "ADDRESS": "451, Cannon Street East, Beasley, Hamilton, Ontario", "DESCRIPTION": null, "CURRENT_BIKES": 2, "AVAILABLE_BIKES": 2, "FREE_RACKS": 4, "RACKS_AMOUNT": 8, "LONGITUDE": -79.84750544000001, "LATITUDE": 43.25596174, "LAST_IMPORT_DATE": "2025-02-11T05:00:00Z" }, "geometry": { "type": "Point", "coordinates": [ -79.847505441713494, 43.255961738468997 ] } },
{ "type": "Feature", "properties": { "OBJECTID": 144, "NAME": "Wentworth at King", "ADDRESS": "16 Wentworth Street South, Hamilton", "DESCRIPTION": null, "CURRENT_BIKES": 0, "AVAILABLE_BIKES": 0, "FREE_RACKS": 12, "RACKS_AMOUNT": 12, "LONGITUDE": -79.84910354, "LATITUDE": 43.25199038, "LAST_IMPORT_DATE": "2025-02-11T05:00:00Z" }, "geometry": { "type": "Point", "coordinates": [ -79.849103539602993, 43.251990383145902 ] } },
{ "type": "Feature", "properties": { "OBJECTID": 145, "NAME": "Bay at Macaulay", "ADDRESS": "492 Bay Street North, Hamilton", "DESCRIPTION": null, "CURRENT_BIKES": 0, "AVAILABLE_BIKES": 0, "FREE_RACKS": 10, "RACKS_AMOUNT": 11, "LONGITUDE": -79.86627102, "LATITUDE": 43.27236226, "LAST_IMPORT_DATE": "2025-02-11T05:00:00Z" }, "geometry": { "type": "Point", "coordinates": [ -79.8662710189232, 43.272362257712402 ] } },
{ "type": "Feature", "properties": { "OBJECTID": 146, "NAME": "Haymarket at Hughson", "ADDRESS": "22 Haymarket Street, Hamilton", "DESCRIPTION": null, "CURRENT_BIKES": 0, "AVAILABLE_BIKES": 0, "FREE_RACKS": 11, "RACKS_AMOUNT": 12, "LONGITUDE": -79.86883387, "LATITUDE": 43.2523698, "LAST_IMPORT_DATE": "2025-02-11T05:00:00Z" }, "geometry": { "type": "Point", "coordinates": [ -79.868833869899603, 43.252369803879098 ] } },
{ "type": "Feature", "properties": { "OBJECTID": 147, "NAME": "James at Colbourne", "ADDRESS": "295 James Street North, Hamilton", "DESCRIPTION": null, "CURRENT_BIKES": 3, "AVAILABLE_BIKES": 3, "FREE_RACKS": 10, "RACKS_AMOUNT": 14, "LONGITUDE": -79.86604216000001, "LATITUDE": 43.26377741, "LAST_IMPORT_DATE": "2025-02-11T05:00:00Z" }, "geometry": { "type": "Point", "coordinates": [ -79.866042159418498, 43.263777411206902 ] } },
{ "type": "Feature", "properties": { "OBJECTID": 148, "NAME": "Ferguson at King", "ADDRESS": "4523 Ferguson Avenue South, Hamilton", "DESCRIPTION": null, "CURRENT_BIKES": 2, "AVAILABLE_BIKES": 2, "FREE_RACKS": 8, "RACKS_AMOUNT": 10, "LONGITUDE": -79.86223564, "LATITUDE": 43.25400492, "LAST_IMPORT_DATE": "2025-02-11T05:00:00Z" }, "geometry": { "type": "Point", "coordinates": [ -79.862235635384096, 43.254004917786602 ] } },
{ "type": "Feature", "properties": { "OBJECTID": 149, "NAME": "Cannon at Birch (Powell Park)", "ADDRESS": "72 Harvey Street, Hamilton", "DESCRIPTION": null, "CURRENT_BIKES": 6, "AVAILABLE_BIKES": 6, "FREE_RACKS": 6, "RACKS_AMOUNT": 12, "LONGITUDE": -79.84128892, "LATITUDE": 43.25504613, "LAST_IMPORT_DATE": "2025-02-11T05:00:00Z" }, "geometry": { "type": "Point", "coordinates": [ -79.8412889241051, 43.255046132078597 ] } },
{ "type": "Feature", "properties": { "OBJECTID": 150, "NAME": "Cannon at Sherman", "ADDRESS": "61-65 Sherman Avenue North, Hamilton", "DESCRIPTION": null, "CURRENT_BIKES": 6, "AVAILABLE_BIKES": 6, "FREE_RACKS": 2, "RACKS_AMOUNT": 8, "LONGITUDE": -79.83749178, "LATITUDE": 43.25339928, "LAST_IMPORT_DATE": "2025-02-11T05:00:00Z" }, "geometry": { "type": "Point", "coordinates": [ -79.837491781646804, 43.253399282273399 ] } },
{ "type": "Feature", "properties": { "OBJECTID": 151, "NAME": "Delaware at Myrtle", "ADDRESS": "17, Delaware Avenue, Inch Park, Hamilton, Ontario", "DESCRIPTION": null, "CURRENT_BIKES": 0, "AVAILABLE_BIKES": 0, "FREE_RACKS": 13, "RACKS_AMOUNT": 13, "LONGITUDE": -79.84952369, "LATITUDE": 43.24804543, "LAST_IMPORT_DATE": "2025-02-11T05:00:00Z" }, "geometry": { "type": "Point", "coordinates": [ -79.849523691684396, 43.248045429162502 ] } },
{ "type": "Feature", "properties": { "OBJECTID": 152, "NAME": "Maplewood at Springer", "ADDRESS": "71, Maplewood Avenue, Hamilton, Ontario", "DESCRIPTION": null, "CURRENT_BIKES": 0, "AVAILABLE_BIKES": 0, "FREE_RACKS": 13, "RACKS_AMOUNT": 13, "LONGITUDE": -79.83708054, "LATITUDE": 43.24515095, "LAST_IMPORT_DATE": "2025-02-11T05:00:00Z" }, "geometry": { "type": "Point", "coordinates": [ -79.837080538858999, 43.245150945789497 ] } },
{ "type": "Feature", "properties": { "OBJECTID": 153, "NAME": "Gage Park", "ADDRESS": "190 Gage Avenue South, Hamilton", "DESCRIPTION": null, "CURRENT_BIKES": 3, "AVAILABLE_BIKES": 3, "FREE_RACKS": 21, "RACKS_AMOUNT": 25, "LONGITUDE": -79.83040988, "LATITUDE": 43.24344819, "LAST_IMPORT_DATE": "2025-02-11T05:00:00Z" }, "geometry": { "type": "Point", "coordinates": [ -79.8304098843887, 43.2434481859569 ] } },
{ "type": "Feature", "properties": { "OBJECTID": 154, "NAME": "McMaster Emerson", "ADDRESS": "Main Street West, Emerson at Main, Hamilton", "DESCRIPTION": null, "CURRENT_BIKES": 7, "AVAILABLE_BIKES": 7, "FREE_RACKS": 13, "RACKS_AMOUNT": 20, "LONGITUDE": -79.91978779, "LATITUDE": 43.25803879, "LAST_IMPORT_DATE": "2025-02-11T05:00:00Z" }, "geometry": { "type": "Point", "coordinates": [ -79.919787794109197, 43.258038792271599 ] } },
{ "type": "Feature", "properties": { "OBJECTID": 155, "NAME": "McMaster Arthur Bourns", "ADDRESS": "2000 College Court, McMaster University, Hamilton", "DESCRIPTION": null, "CURRENT_BIKES": 6, "AVAILABLE_BIKES": 6, "FREE_RACKS": 9, "RACKS_AMOUNT": 15, "LONGITUDE": -79.92235867, "LATITUDE": 43.259969, "LAST_IMPORT_DATE": "2025-02-11T05:00:00Z" }, "geometry": { "type": "Point", "coordinates": [ -79.922358670884606, 43.259969001969203 ] } },
{ "type": "Feature", "properties": { "OBJECTID": 156, "NAME": "McMaster Health Sciences", "ADDRESS": "CIBC, University Avenue, Westdale, Hamilton, Ontario", "DESCRIPTION": null, "CURRENT_BIKES": 13, "AVAILABLE_BIKES": 13, "FREE_RACKS": 15, "RACKS_AMOUNT": 31, "LONGITUDE": -79.91824821, "LATITUDE": 43.26053126, "LAST_IMPORT_DATE": "2025-02-11T05:00:00Z" }, "geometry": { "type": "Point", "coordinates": [ -79.918248206645401, 43.260531260532296 ] } },
{ "type": "Feature", "properties": { "OBJECTID": 157, "NAME": "McMaster Mary Keyes", "ADDRESS": "Scholars Road, McMaster University, Hamilton", "DESCRIPTION": null, "CURRENT_BIKES": 3, "AVAILABLE_BIKES": 3, "FREE_RACKS": 10, "RACKS_AMOUNT": 13, "LONGITUDE": -79.92222726, "LATITUDE": 43.2623566, "LAST_IMPORT_DATE": "2025-02-11T05:00:00Z" }, "geometry": { "type": "Point", "coordinates": [ -79.922227263963194, 43.262356597490303 ] } },
{ "type": "Feature", "properties": { "OBJECTID": 158, "NAME": "McMaster McKay", "ADDRESS": "Stearn Drive, McMaster University, Hamilton", "DESCRIPTION": null, "CURRENT_BIKES": 0, "AVAILABLE_BIKES": 0, "FREE_RACKS": 11, "RACKS_AMOUNT": 12, "LONGITUDE": -79.91868138, "LATITUDE": 43.26462232, "LAST_IMPORT_DATE": "2025-02-11T05:00:00Z" }, "geometry": { "type": "Point", "coordinates": [ -79.9186813836819, 43.264622320895398 ] } },
{ "type": "Feature", "properties": { "OBJECTID": 159, "NAME": "Hunter GO Centre", "ADDRESS": "36 Hunter Street East, Hamilton", "DESCRIPTION": null, "CURRENT_BIKES": 17, "AVAILABLE_BIKES": 17, "FREE_RACKS": 0, "RACKS_AMOUNT": 18, "LONGITUDE": -79.86953259000001, "LATITUDE": 43.25332998, "LAST_IMPORT_DATE": "2025-02-11T05:00:00Z" }, "geometry": { "type": "Point", "coordinates": [ -79.869532585288894, 43.253329974437897 ] } },
{ "type": "Feature", "properties": { "OBJECTID": 160, "NAME": "McMaster Student Centre", "ADDRESS": "Sterling Street, McMaster University, Hamilton", "DESCRIPTION": null, "CURRENT_BIKES": 24, "AVAILABLE_BIKES": 24, "FREE_RACKS": 5, "RACKS_AMOUNT": 30, "LONGITUDE": -79.91714716, "LATITUDE": 43.26274334, "LAST_IMPORT_DATE": "2025-02-11T05:00:00Z" }, "geometry": { "type": "Point", "coordinates": [ -79.917147159043097, 43.262743339162697 ] } },
{ "type": "Feature", "properties": { "OBJECTID": 161, "NAME": "York at Macnab", "ADDRESS": "25 York Boulevard, Hamilton", "DESCRIPTION": null, "CURRENT_BIKES": 2, "AVAILABLE_BIKES": 2, "FREE_RACKS": 24, "RACKS_AMOUNT": 29, "LONGITUDE": -79.86919194, "LATITUDE": 43.25901059, "LAST_IMPORT_DATE": "2025-02-11T05:00:00Z" }, "geometry": { "type": "Point", "coordinates": [ -79.869191944170794, 43.259010593753302 ] } },
{ "type": "Feature", "properties": { "OBJECTID": 162, "NAME": "Park at Robinson", "ADDRESS": "80-92 Robinson Street, Hamilton", "DESCRIPTION": null, "CURRENT_BIKES": 6, "AVAILABLE_BIKES": 6, "FREE_RACKS": 4, "RACKS_AMOUNT": 10, "LONGITUDE": -79.87490909, "LATITUDE": 43.25159577, "LAST_IMPORT_DATE": "2025-02-11T05:00:00Z" }, "geometry": { "type": "Point", "coordinates": [ -79.874909086485999, 43.251595773409498 ] } },
{ "type": "Feature", "properties": { "OBJECTID": 163, "NAME": "West at Cannon", "ADDRESS": "144 West Avenue North, Hamilton", "DESCRIPTION": null, "CURRENT_BIKES": 1, "AVAILABLE_BIKES": 1, "FREE_RACKS": 11, "RACKS_AMOUNT": 13, "LONGITUDE": -79.85613376000001, "LATITUDE": 43.25787786, "LAST_IMPORT_DATE": "2025-02-11T05:00:00Z" }, "geometry": { "type": "Point", "coordinates": [ -79.856133763667302, 43.2578778616043 ] } },
{ "type": "Feature", "properties": { "OBJECTID": 164, "NAME": "Princess Point", "ADDRESS": "809 Desjardins Recreation Trail, Hamilton", "DESCRIPTION": null, "CURRENT_BIKES": 3, "AVAILABLE_BIKES": 3, "FREE_RACKS": 9, "RACKS_AMOUNT": 12, "LONGITUDE": -79.89452704, "LATITUDE": 43.27299129, "LAST_IMPORT_DATE": "2025-02-11T05:00:00Z" }, "geometry": { "type": "Point", "coordinates": [ -79.894527039023501, 43.272991286652498 ] } },
{ "type": "Feature", "properties": { "OBJECTID": 165, "NAME": "Aberdeen at Studholme", "ADDRESS": "34 Studholme Road, Hamilton", "DESCRIPTION": null, "CURRENT_BIKES": 8, "AVAILABLE_BIKES": 8, "FREE_RACKS": 4, "RACKS_AMOUNT": 13, "LONGITUDE": -79.89969289, "LATITUDE": 43.25262831, "LAST_IMPORT_DATE": "2025-02-11T05:00:00Z" }, "geometry": { "type": "Point", "coordinates": [ -79.899692892679198, 43.252628307152101 ] } },
{ "type": "Feature", "properties": { "OBJECTID": 166, "NAME": "Hunter at Park", "ADDRESS": "61 Hurst Place, Hamilton", "DESCRIPTION": null, "CURRENT_BIKES": 3, "AVAILABLE_BIKES": 3, "FREE_RACKS": 6, "RACKS_AMOUNT": 10, "LONGITUDE": -79.87339462, "LATITUDE": 43.2543192, "LAST_IMPORT_DATE": "2025-02-11T05:00:00Z" }, "geometry": { "type": "Point", "coordinates": [ -79.873394615535005, 43.254319199543403 ] } },
{ "type": "Feature", "properties": { "OBJECTID": 167, "NAME": "John at Main", "ADDRESS": "57 John Street South, Hamilton", "DESCRIPTION": "Blade racks", "CURRENT_BIKES": 0, "AVAILABLE_BIKES": 0, "FREE_RACKS": 12, "RACKS_AMOUNT": 13, "LONGITUDE": -79.86718029, "LATITUDE": 43.25452944, "LAST_IMPORT_DATE": "2025-02-11T05:00:00Z" }, "geometry": { "type": "Point", "coordinates": [ -79.867180288428699, 43.2545294343698 ] } },
{ "type": "Feature", "properties": { "OBJECTID": 168, "NAME": "Hess at king", "ADDRESS": "15 Hess Street North, Hamilton", "DESCRIPTION": null, "CURRENT_BIKES": 4, "AVAILABLE_BIKES": 4, "FREE_RACKS": 8, "RACKS_AMOUNT": 12, "LONGITUDE": -79.87721175, "LATITUDE": 43.25912584, "LAST_IMPORT_DATE": "2025-02-11T05:00:00Z" }, "geometry": { "type": "Point", "coordinates": [ -79.877211749864401, 43.259125841491901 ] } },
{ "type": "Feature", "properties": { "OBJECTID": 169, "NAME": "Rifle Range at Rail Trail", "ADDRESS": "64 Rifle Range Road, Hamilton", "DESCRIPTION": null, "CURRENT_BIKES": 8, "AVAILABLE_BIKES": 8, "FREE_RACKS": 7, "RACKS_AMOUNT": 16, "LONGITUDE": -79.92987713, "LATITUDE": 43.25548501, "LAST_IMPORT_DATE": "2025-02-11T05:00:00Z" }, "geometry": { "type": "Point", "coordinates": [ -79.929877128831905, 43.255485008831798 ] } },
{ "type": "Feature", "properties": { "OBJECTID": 170, "NAME": "Augusta at John", "ADDRESS": "62-64 Augusta Street, Hamilton", "DESCRIPTION": null, "CURRENT_BIKES": 0, "AVAILABLE_BIKES": 0, "FREE_RACKS": 10, "RACKS_AMOUNT": 10, "LONGITUDE": -79.86898005, "LATITUDE": 43.25163233, "LAST_IMPORT_DATE": "2025-02-11T05:00:00Z" }, "geometry": { "type": "Point", "coordinates": [ -79.868980049547801, 43.251632327985803 ] } },
{ "type": "Feature", "properties": { "OBJECTID": 171, "NAME": "Queen at George", "ADDRESS": "34-54 Queen Street South, Hamilton", "DESCRIPTION": null, "CURRENT_BIKES": 0, "AVAILABLE_BIKES": 0, "FREE_RACKS": 5, "RACKS_AMOUNT": 6, "LONGITUDE": -79.87935752, "LATITUDE": 43.25812181, "LAST_IMPORT_DATE": "2025-02-11T05:00:00Z" }, "geometry": { "type": "Point", "coordinates": [ -79.879357516415098, 43.258121810434702 ] } },
{ "type": "Feature", "properties": { "OBJECTID": 172, "NAME": "Forsyth at Sterling", "ADDRESS": "88 Forsyth Avenue North, Hamilton", "DESCRIPTION": null, "CURRENT_BIKES": 4, "AVAILABLE_BIKES": 4, "FREE_RACKS": 27, "RACKS_AMOUNT": 36, "LONGITUDE": -79.91580606, "LATITUDE": 43.26271404, "LAST_IMPORT_DATE": "2025-02-11T05:00:00Z" }, "geometry": { "type": "Point", "coordinates": [ -79.915806054716398, 43.262714040334103 ] } },
{ "type": "Feature", "properties": { "OBJECTID": 173, "NAME": "Duke at James", "ADDRESS": "180 James Street South, Hamilton", "DESCRIPTION": null, "CURRENT_BIKES": 2, "AVAILABLE_BIKES": 2, "FREE_RACKS": 4, "RACKS_AMOUNT": 6, "LONGITUDE": -79.87135381, "LATITUDE": 43.25163038, "LAST_IMPORT_DATE": "2025-02-11T05:00:00Z" }, "geometry": { "type": "Point", "coordinates": [ -79.871353804982405, 43.251630374368702 ] } },
{ "type": "Feature", "properties": { "OBJECTID": 174, "NAME": "King William at Hughson", "ADDRESS": "55 King William Street, Hamilton", "DESCRIPTION": null, "CURRENT_BIKES": 3, "AVAILABLE_BIKES": 3, "FREE_RACKS": 1, "RACKS_AMOUNT": 5, "LONGITUDE": -79.86643463, "LATITUDE": 43.25690484, "LAST_IMPORT_DATE": "2025-02-11T05:00:00Z" }, "geometry": { "type": "Point", "coordinates": [ -79.866434634251803, 43.256904841595698 ] } },
{ "type": "Feature", "properties": { "OBJECTID": 175, "NAME": "Tisdale at Main", "ADDRESS": "9-23 Tisdale Street South, Hamilton", "DESCRIPTION": null, "CURRENT_BIKES": 1, "AVAILABLE_BIKES": 1, "FREE_RACKS": 9, "RACKS_AMOUNT": 10, "LONGITUDE": -79.85307992, "LATITUDE": 43.2519156, "LAST_IMPORT_DATE": "2025-02-11T05:00:00Z" }, "geometry": { "type": "Point", "coordinates": [ -79.853079914737506, 43.251915597763897 ] } },
{ "type": "Feature", "properties": { "OBJECTID": 176, "NAME": "Frid at Main", "ADDRESS": "44 Frid Street, Hamilton", "DESCRIPTION": null, "CURRENT_BIKES": 3, "AVAILABLE_BIKES": 3, "FREE_RACKS": 7, "RACKS_AMOUNT": 10, "LONGITUDE": -79.89262372, "LATITUDE": 43.25940517, "LAST_IMPORT_DATE": "2025-02-11T05:00:00Z" }, "geometry": { "type": "Point", "coordinates": [ -79.892623722042501, 43.259405169537402 ] } },
{ "type": "Feature", "properties": { "OBJECTID": 177, "NAME": "James at Guise", "ADDRESS": "1 Guise Street West, Hamilton", "DESCRIPTION": null, "CURRENT_BIKES": 1, "AVAILABLE_BIKES": 1, "FREE_RACKS": 8, "RACKS_AMOUNT": 9, "LONGITUDE": -79.8618561, "LATITUDE": 43.27372929, "LAST_IMPORT_DATE": "2025-02-11T05:00:00Z" }, "geometry": { "type": "Point", "coordinates": [ -79.861856102929707, 43.273729290302597 ] } },
{ "type": "Feature", "properties": { "OBJECTID": 178, "NAME": "Stadium", "ADDRESS": "17A Cannon Street East, Hamilton", "DESCRIPTION": null, "CURRENT_BIKES": 6, "AVAILABLE_BIKES": 6, "FREE_RACKS": 26, "RACKS_AMOUNT": 32, "LONGITUDE": -79.83134329000001, "LATITUDE": 43.25161475, "LAST_IMPORT_DATE": "2025-02-11T05:00:00Z" }, "geometry": { "type": "Point", "coordinates": [ -79.831343293238803, 43.2516147456871 ] } },
{ "type": "Feature", "properties": { "OBJECTID": 179, "NAME": "West Harbour GO Station", "ADDRESS": "282 MacNab Street North, Hamilton", "DESCRIPTION": null, "CURRENT_BIKES": 11, "AVAILABLE_BIKES": 11, "FREE_RACKS": 0, "RACKS_AMOUNT": 12, "LONGITUDE": -79.86611009000001, "LATITUDE": 43.26624929, "LAST_IMPORT_DATE": "2025-02-11T05:00:00Z" }, "geometry": { "type": "Point", "coordinates": [ -79.866110085908005, 43.266249293033901 ] } },
{ "type": "Feature", "properties": { "OBJECTID": 180, "NAME": "Pier 4", "ADDRESS": "50 Leander Drive, Hamilton", "DESCRIPTION": null, "CURRENT_BIKES": 1, "AVAILABLE_BIKES": 1, "FREE_RACKS": 28, "RACKS_AMOUNT": 30, "LONGITUDE": -79.86689731, "LATITUDE": 43.27260052, "LAST_IMPORT_DATE": "2025-02-11T05:00:00Z" }, "geometry": { "type": "Point", "coordinates": [ -79.866897314285197, 43.272600513972598 ] } },
{ "type": "Feature", "properties": { "OBJECTID": 181, "NAME": "Main and Wellington", "ADDRESS": "250 Main Street East, Hamilton", "DESCRIPTION": null, "CURRENT_BIKES": 1, "AVAILABLE_BIKES": 1, "FREE_RACKS": 5, "RACKS_AMOUNT": 8, "LONGITUDE": -79.86008584, "LATITUDE": 43.25281815, "LAST_IMPORT_DATE": "2025-02-11T05:00:00Z" }, "geometry": { "type": "Point", "coordinates": [ -79.860085844993606, 43.252818146080102 ] } },
{ "type": "Feature", "properties": { "OBJECTID": 182, "NAME": "Cumberland at Blake ", "ADDRESS": "237-243 Cumberland Avenue, Hamilton", "DESCRIPTION": null, "CURRENT_BIKES": 1, "AVAILABLE_BIKES": 1, "FREE_RACKS": 5, "RACKS_AMOUNT": 6, "LONGITUDE": -79.8405084, "LATITUDE": 43.24333096, "LAST_IMPORT_DATE": "2025-02-11T05:00:00Z" }, "geometry": { "type": "Point", "coordinates": [ -79.840508401210499, 43.243330955060699 ] } },
{ "type": "Feature", "properties": { "OBJECTID": 183, "NAME": "Main at Eastbourne", "ADDRESS": "700 Main Street East, Hamilton", "DESCRIPTION": null, "CURRENT_BIKES": 2, "AVAILABLE_BIKES": 2, "FREE_RACKS": 10, "RACKS_AMOUNT": 12, "LONGITUDE": -79.84201849, "LATITUDE": 43.24814116, "LAST_IMPORT_DATE": "2025-02-11T05:00:00Z" }, "geometry": { "type": "Point", "coordinates": [ -79.842018484515904, 43.2481411608942 ] } },
{ "type": "Feature", "properties": { "OBJECTID": 184, "NAME": "Cannon at Ottawa", "ADDRESS": "1182-1188 Cannon Street East, Hamilton", "DESCRIPTION": null, "CURRENT_BIKES": 1, "AVAILABLE_BIKES": 1, "FREE_RACKS": 10, "RACKS_AMOUNT": 11, "LONGITUDE": -79.81805027, "LATITUDE": 43.24756531, "LAST_IMPORT_DATE": "2025-02-11T05:00:00Z" }, "geometry": { "type": "Point", "coordinates": [ -79.818050265800807, 43.247565304110502 ] } },
{ "type": "Feature", "properties": { "OBJECTID": 185, "NAME": "King at Mary", "ADDRESS": "151-163 Hamilton Regional Road 8, Hamilton", "DESCRIPTION": null, "CURRENT_BIKES": 3, "AVAILABLE_BIKES": 3, "FREE_RACKS": 4, "RACKS_AMOUNT": 7, "LONGITUDE": -79.86437805, "LATITUDE": 43.25519606, "LAST_IMPORT_DATE": "2025-02-11T05:00:00Z" }, "geometry": { "type": "Point", "coordinates": [ -79.864378049423195, 43.255196061793697 ] } },
{ "type": "Feature", "properties": { "OBJECTID": 186, "NAME": "270 Sherman", "ADDRESS": "272, Sherman Avenue North, Hamilton, Ontario", "DESCRIPTION": null, "CURRENT_BIKES": 6, "AVAILABLE_BIKES": 6, "FREE_RACKS": 3, "RACKS_AMOUNT": 10, "LONGITUDE": -79.83437285, "LATITUDE": 43.26044141, "LAST_IMPORT_DATE": "2025-02-11T05:00:00Z" }, "geometry": { "type": "Point", "coordinates": [ -79.834372848854301, 43.260441408376103 ] } },
{ "type": "Feature", "properties": { "OBJECTID": 187, "NAME": "Athletic Centre Bike Racks", "ADDRESS": "Stearn Drive, McMaster University, Hamilton", "DESCRIPTION": null, "CURRENT_BIKES": 35, "AVAILABLE_BIKES": 35, "FREE_RACKS": 0, "RACKS_AMOUNT": 20, "LONGITUDE": -79.91539836, "LATITUDE": 43.26472779, "LAST_IMPORT_DATE": "2025-02-11T05:00:00Z" }, "geometry": { "type": "Point", "coordinates": [ -79.915398358984106, 43.264727792952598 ] } },
{ "type": "Feature", "properties": { "OBJECTID": 188, "NAME": "King Street Dundas", "ADDRESS": "6-8 Main Street, Hamilton", "DESCRIPTION": null, "CURRENT_BIKES": 1, "AVAILABLE_BIKES": 1, "FREE_RACKS": 0, "RACKS_AMOUNT": 1, "LONGITUDE": -79.95375395000001, "LATITUDE": 43.26595633, "LAST_IMPORT_DATE": "2025-02-11T05:00:00Z" }, "geometry": { "type": "Point", "coordinates": [ -79.9537539482249, 43.265956324368098 ] } },
{ "type": "Feature", "properties": { "OBJECTID": 189, "NAME": "Cootes Drive Dundas", "ADDRESS": "11 Court Street, Hamilton", "DESCRIPTION": null, "CURRENT_BIKES": 2, "AVAILABLE_BIKES": 2, "FREE_RACKS": 0, "RACKS_AMOUNT": 1, "LONGITUDE": -79.94765997, "LATITUDE": 43.26547419, "LAST_IMPORT_DATE": "2025-02-11T05:00:00Z" }, "geometry": { "type": "Point", "coordinates": [ -79.947659969837702, 43.265474190917097 ] } },
{ "type": "Feature", "properties": { "OBJECTID": 190, "NAME": "Mac Rack Preliminary Lab", "ADDRESS": "1280 Main Street West, McMaster University, Hamilton", "DESCRIPTION": null, "CURRENT_BIKES": 3, "AVAILABLE_BIKES": 3, "FREE_RACKS": 29, "RACKS_AMOUNT": 32, "LONGITUDE": -79.91984278, "LATITUDE": 43.25881741, "LAST_IMPORT_DATE": "2025-02-11T05:00:00Z" }, "geometry": { "type": "Point", "coordinates": [ -79.919842779926299, 43.258817406502303 ] } }
]
}
