{
"type": "FeatureCollection",
"name": "Libraries",
"crs": { "type": "name", "properties": { "name": "urn:ogc:def:crs:OGC:1.3:CRS84" } },
"features": [
{ "type": "Feature", "properties": { "OBJECTID": 1, "NAME": "Greensville Library", "ADDRESS": "625 Harvest Road", "COMMUNITY": "Flamborough", "BUILDING_SQ_FT": null, "HOLDINGS": 0, "CIRCULATION": 0, "RANKING": null, "RADIUS_KM": 0 }, "geometry": { "type": "Point", "coordinates": [ -79.983464205213195, 43.281475086750604 ] } },
{ "type": "Feature", "properties": { "OBJECTID": 2, "NAME": "Parkdale Library", "ADDRESS": "256 Parkdale Avenue North", "COMMUNITY": "Hamilton", "BUILDING_SQ_FT": 1500, "HOLDINGS": null, "CIRCULATION": null, "RANKING": null, "RADIUS_KM": null }, "geometry": { "type": "Point", "coordinates": [ -79.788578786872705, 43.2438181823183 ] } },
{ "type": "Feature", "properties": { "OBJECTID": 3, "NAME": "Ancaster Library", "ADDRESS": "300 WIlson Street East", "COMMUNITY": "Ancaster", "BUILDING_SQ_FT": 7500, "HOLDINGS": 58884, "CIRCULATION": 247037, "RANKING": "-3", "RADIUS_KM": 2 }, "geometry": { "type": "Point", "coordinates": [ -79.976660631923593, 43.225309172422797 ] } },
{ "type": "Feature", "properties": { "OBJECTID": 4, "NAME": "Barton Library", "ADDRESS": "571 Barton Street East", "COMMUNITY": "Hamilton", "BUILDING_SQ_FT": 6272, "HOLDINGS": 25027, "CIRCULATION": 69297, "RANKING": "-2", "RADIUS_KM": 1 }, "geometry": { "type": "Point", "coordinates": [ -79.841218980779203, 43.258031698221203 ] } },
{ "type": "Feature", "properties": { "OBJECTID": 5, "NAME": "Binbrook Library", "ADDRESS": "2641 Regional Road 56", "COMMUNITY": "Glanbrook", "BUILDING_SQ_FT": 3192, "HOLDINGS": 18858, "CIRCULATION": 46545, "RANKING": "-1", "RADIUS_KM": 10 }, "geometry": { "type": "Point", "coordinates": [ -79.803429471869705, 43.121704377645401 ] } },
{ "type": "Feature", "properties": { "OBJECTID": 6, "NAME": "Carlisle Library", "ADDRESS": "1496 Centre Road", "COMMUNITY": "Flamborough", "BUILDING_SQ_FT": 2491, "HOLDINGS": 18434, "CIRCULATION": 45113, "RANKING": "-1", "RADIUS_KM": 10 }, "geometry": { "type": "Point", "coordinates": [ -79.981086210694301, 43.396053385003199 ] } },
{ "type": "Feature", "properties": { "OBJECTID": 7, "NAME": "Concession Library", "ADDRESS": "565 Concession Street", "COMMUNITY": "Hamilton", "BUILDING_SQ_FT": 8380, "HOLDINGS": 47689, "CIRCULATION": 173618, "RANKING": "-3", "RADIUS_KM": 2 }, "geometry": { "type": "Point", "coordinates": [ -79.851368251374197, 43.241041597997103 ] } },
{ "type": "Feature", "properties": { "OBJECTID": 8, "NAME": "Dundas Library", "ADDRESS": "18 Ogilvie Street", "COMMUNITY": "Dundas", "BUILDING_SQ_FT": 13712, "HOLDINGS": 86203, "CIRCULATION": 280443, "RANKING": "-3", "RADIUS_KM": 2 }, "geometry": { "type": "Point", "coordinates": [ -79.954948711901196, 43.265483890919903 ] } },
{ "type": "Feature", "properties": { "OBJECTID": 9, "NAME": "Freelton Library", "ADDRESS": "1803 Brock Road", "COMMUNITY": "Flamborough", "BUILDING_SQ_FT": null, "HOLDINGS": 0, "CIRCULATION": 0, "RANKING": null, "RADIUS_KM": 0 }, "geometry": { "type": "Point", "coordinates": [ -80.038766453408797, 43.397933407699398 ] } },
{ "type": "Feature", "properties": { "OBJECTID": 10, "NAME": "Hamilton Central Library", "ADDRESS": "55 York Boulevard", "COMMUNITY": "Hamilton", "BUILDING_SQ_FT": 146131, "HOLDINGS": 146131, "CIRCULATION": 830909, "RANKING": "-5", "RADIUS_KM": 5 }, "geometry": { "type": "Point", "coordinates": [ -79.870699715424706, 43.258941559592003 ] } },
{ "type": "Feature", "properties": { "OBJECTID": 11, "NAME": "Kenilworth Library", "ADDRESS": "103 Kenilworth Avenue North", "COMMUNITY": "Hamilton", "BUILDING_SQ_FT": 8000, "HOLDINGS": 46702, "CIRCULATION": 145651, "RANKING": "-3", "RADIUS_KM": 2 }, "geometry": { "type": "Point", "coordinates": [ -79.808841629044807, 43.243498235958498 ] } },
{ "type": "Feature", "properties": { "OBJECTID": 12, "NAME": "Locke Library", "ADDRESS": "285 Locke Street South", "COMMUNITY": "Hamilton", "BUILDING_SQ_FT": 1451, "HOLDINGS": 23853, "CIRCULATION": 92902, "RANKING": "-2", "RADIUS_KM": 1 }, "geometry": { "type": "Point", "coordinates": [ -79.887022038150107, 43.251822853106901 ] } },
{ "type": "Feature", "properties": { "OBJECTID": 13, "NAME": "Lynden Library", "ADDRESS": "110 Lynden Road", "COMMUNITY": "Flamborough", "BUILDING_SQ_FT": 4000, "HOLDINGS": 0, "CIRCULATION": 0, "RANKING": null, "RADIUS_KM": 0 }, "geometry": { "type": "Point", "coordinates": [ -80.146595370182098, 43.236560204366 ] } },
{ "type": "Feature", "properties": { "OBJECTID": 14, "NAME": "Mount Hope Library", "ADDRESS": "3027 Homestead Drive", "COMMUNITY": "Glanbrook", "BUILDING_SQ_FT": 2230, "HOLDINGS": 15457, "CIRCULATION": 31195, "RANKING": "-1", "RADIUS_KM": 10 }, "geometry": { "type": "Point", "coordinates": [ -79.912062199569107, 43.160579870093102 ] } },
{ "type": "Feature", "properties": { "OBJECTID": 15, "NAME": "Red Hill Library", "ADDRESS": "695 Queenston Road", "COMMUNITY": "Hamilton", "BUILDING_SQ_FT": 11760, "HOLDINGS": 61550, "CIRCULATION": 236902, "RANKING": "-3", "RADIUS_KM": 2 }, "geometry": { "type": "Point", "coordinates": [ -79.771944719483301, 43.230282113187002 ] } },
{ "type": "Feature", "properties": { "OBJECTID": 16, "NAME": "Saltfleet Library", "ADDRESS": "131 Gray Road", "COMMUNITY": "Stoney Creek", "BUILDING_SQ_FT": 15481, "HOLDINGS": 70643, "CIRCULATION": 252049, "RANKING": "-3", "RADIUS_KM": 2 }, "geometry": { "type": "Point", "coordinates": [ -79.745075092717698, 43.2222924482232 ] } },
{ "type": "Feature", "properties": { "OBJECTID": 17, "NAME": "Sherwood Library", "ADDRESS": "467 Upper Ottawa Street", "COMMUNITY": "Hamilton", "BUILDING_SQ_FT": 20400, "HOLDINGS": 74754, "CIRCULATION": 333168, "RANKING": "-3", "RADIUS_KM": 2 }, "geometry": { "type": "Point", "coordinates": [ -79.8286176855961, 43.226569127668398 ] } },
{ "type": "Feature", "properties": { "OBJECTID": 18, "NAME": "Stoney Creek Library", "ADDRESS": "777 Highway 8", "COMMUNITY": "Stoney Creek", "BUILDING_SQ_FT": 6404, "HOLDINGS": 32989, "CIRCULATION": 87659, "RANKING": "-2", "RADIUS_KM": 2 }, "geometry": { "type": "Point", "coordinates": [ -79.691405296378505, 43.212864345678398 ] } },
{ "type": "Feature", "properties": { "OBJECTID": 19, "NAME": "Terryberry Library", "ADDRESS": "100 Mohawk Road West", "COMMUNITY": "Hamilton", "BUILDING_SQ_FT": 30000, "HOLDINGS": 121339, "CIRCULATION": 590659, "RANKING": "-4", "RADIUS_KM": 5 }, "geometry": { "type": "Point", "coordinates": [ -79.886749082334205, 43.230314278735399 ] } },
{ "type": "Feature", "properties": { "OBJECTID": 20, "NAME": "Turner Park Library", "ADDRESS": "352 Rymal Road East", "COMMUNITY": "Hamilton", "BUILDING_SQ_FT": 23918, "HOLDINGS": 58400, "CIRCULATION": 0, "RANKING": null, "RADIUS_KM": 0 }, "geometry": { "type": "Point", "coordinates": [ -79.878627860731498, 43.198467045820401 ] } },
{ "type": "Feature", "properties": { "OBJECTID": 21, "NAME": "Valley Park Library", "ADDRESS": "1050 Paramount Drive, Unit 12", "COMMUNITY": "Stoney Creek", "BUILDING_SQ_FT": 3100, "HOLDINGS": 23668, "CIRCULATION": 94484, "RANKING": "-2", "RADIUS_KM": 1 }, "geometry": { "type": "Point", "coordinates": [ -79.797900012033196, 43.193095939312499 ] } },
{ "type": "Feature", "properties": { "OBJECTID": 22, "NAME": "Waterdown Library", "ADDRESS": "163 Dundas Street East", "COMMUNITY": "Flamborough", "BUILDING_SQ_FT": 3410, "HOLDINGS": 31253, "CIRCULATION": 143223, "RANKING": "-2", "RADIUS_KM": 2 }, "geometry": { "type": "Point", "coordinates": [ -79.904798193877596, 43.323629398581303 ] } },
{ "type": "Feature", "properties": { "OBJECTID": 23, "NAME": "Westdale Library", "ADDRESS": "955 King Street West", "COMMUNITY": "Hamilton", "BUILDING_SQ_FT": 9950, "HOLDINGS": 56499, "CIRCULATION": 274285, "RANKING": "-3", "RADIUS_KM": 2 }, "geometry": { "type": "Point", "coordinates": [ -79.903476765509495, 43.262568620725801 ] } }
]
}
