{
"type": "FeatureCollection",
"name": "Recreation_and_Community_Centres",
"crs": { "type": "name", "properties": { "name": "urn:ogc:def:crs:OGC:1.3:CRS84" } },
"features": [
{ "type": "Feature", "properties": { "OBJECTID": 1, "NAME": "Carlisle Memorial Hall", "ADDRESS": "273 Carlisle Road" }, "geometry": { "type": "Point", "coordinates": [ -79.981479859663594, 43.393942895630403 ] } },
{ "type": "Feature", "properties": { "OBJECTID": 2, "NAME": "Flamborough Seniors Centre", "ADDRESS": "163 Dundas Street East" }, "geometry": { "type": "Point", "coordinates": [ -79.904914656213094, 43.323716122092499 ] } },
{ "type": "Feature", "properties": { "OBJECTID": 3, "NAME": "Eastmount Community Centre", "ADDRESS": "115 East 26th Street" }, "geometry": { "type": "Point", "coordinates": [ -79.848660043617002, 43.236433715646903 ] } },
{ "type": "Feature", "properties": { "OBJECTID": 4, "NAME": "Dundas Community Pool", "ADDRESS": "35 Market Street South" }, "geometry": { "type": "Point", "coordinates": [ -79.963556325791998, 43.265474425934499 ] } },
{ "type": "Feature", "properties": { "OBJECTID": 5, "NAME": "Dominic Agostino Riverdale Community Centre", "ADDRESS": "150 Violet Drive" }, "geometry": { "type": "Point", "coordinates": [ -79.7567673536211, 43.232514790482497 ] } },
{ "type": "Feature", "properties": { "OBJECTID": 6, "NAME": "David Braley Athletic & Recreation Centre - Mohawk College", "ADDRESS": "135 Fennell Avenue West" }, "geometry": { "type": "Point", "coordinates": [ -79.888519883421694, 43.2386334423257 ] } },
{ "type": "Feature", "properties": { "OBJECTID": 7, "NAME": "Carlisle Recreation Centre", "ADDRESS": "1496 Centre Road" }, "geometry": { "type": "Point", "coordinates": [ -79.981008613783104, 43.396564078545602 ] } },
{ "type": "Feature", "properties": { "OBJECTID": 8, "NAME": "Kanétskare Recreation Centre", "ADDRESS": "251 Duke Street" }, "geometry": { "type": "Point", "coordinates": [ -79.882356442634503, 43.253812786658301 ] } },
{ "type": "Feature", "properties": { "OBJECTID": 9, "NAME": "Ancaster Old Town Hall", "ADDRESS": "310 Wilson Street East" }, "geometry": { "type": "Point", "coordinates": [ -79.9762645441307, 43.225512303784797 ] } },
{ "type": "Feature", "properties": { "OBJECTID": 10, "NAME": "Simone Hall (Old Beasley)", "ADDRESS": "133 Wilson Street" }, "geometry": { "type": "Point", "coordinates": [ -79.861771596146298, 43.258056374804703 ] } },
{ "type": "Feature", "properties": { "OBJECTID": 11, "NAME": "Victoria Park Clubhouse", "ADDRESS": "516 King Street West" }, "geometry": { "type": "Point", "coordinates": [ -79.884764622517196, 43.261721986238001 ] } },
{ "type": "Feature", "properties": { "OBJECTID": 12, "NAME": "Sealey Park Scout Hall", "ADDRESS": "115 Main Street South" }, "geometry": { "type": "Point", "coordinates": [ -79.889220443286703, 43.330815209142202 ] } },
{ "type": "Feature", "properties": { "OBJECTID": 13, "NAME": "Sir Allan MacNab Recreation Centre", "ADDRESS": "145 Magnolia Drive" }, "geometry": { "type": "Point", "coordinates": [ -79.921686657380704, 43.231070073023602 ] } },
{ "type": "Feature", "properties": { "OBJECTID": 14, "NAME": "Greensville Community Centre", "ADDRESS": "625 Harvest Road" }, "geometry": { "type": "Point", "coordinates": [ -79.983611761127094, 43.281426366038801 ] } },
{ "type": "Feature", "properties": { "OBJECTID": 15, "NAME": "Beverly Community Centre", "ADDRESS": "670 Highway No. 8" }, "geometry": { "type": "Point", "coordinates": [ -80.111303457292394, 43.296799393349303 ] } },
{ "type": "Feature", "properties": { "OBJECTID": 16, "NAME": "Winona Community Centre", "ADDRESS": "255 Winona Road" }, "geometry": { "type": "Point", "coordinates": [ -79.650924567531703, 43.208514781639103 ] } },
{ "type": "Feature", "properties": { "OBJECTID": 17, "NAME": "YWCA Hamilton Active Living Centre - Putman Family Ottawa St", "ADDRESS": "52 Ottawa Street North" }, "geometry": { "type": "Point", "coordinates": [ -79.818912771275706, 43.243938247985398 ] } },
{ "type": "Feature", "properties": { "OBJECTID": 18, "NAME": "Warden Park Seniors Club", "ADDRESS": "1655 Barton Street East" }, "geometry": { "type": "Point", "coordinates": [ -79.791962116412293, 43.245927964638398 ] } },
{ "type": "Feature", "properties": { "OBJECTID": 19, "NAME": "Rosedale Seniors Club", "ADDRESS": "100 Greenhill Avenue" }, "geometry": { "type": "Point", "coordinates": [ -79.807198078173798, 43.218985718118198 ] } },
{ "type": "Feature", "properties": { "OBJECTID": 20, "NAME": "Churchill Park Clubhouse", "ADDRESS": "167 Cline Avenue North" }, "geometry": { "type": "Point", "coordinates": [ -79.904834119677403, 43.2647218146586 ] } },
{ "type": "Feature", "properties": { "OBJECTID": 21, "NAME": "Dundas Senior Citizen’s Club", "ADDRESS": "10 Market Street South" }, "geometry": { "type": "Point", "coordinates": [ -79.963512579260296, 43.2675555061262 ] } },
{ "type": "Feature", "properties": { "OBJECTID": 22, "NAME": "YMCA - Les Chater Family", "ADDRESS": "356 Rymal Road East" }, "geometry": { "type": "Point", "coordinates": [ -79.878045013087799, 43.198361891424497 ] } },
{ "type": "Feature", "properties": { "OBJECTID": 23, "NAME": "Main Hess Senior's Activity Club", "ADDRESS": "200 Jackson Street West" }, "geometry": { "type": "Point", "coordinates": [ -79.877759381432199, 43.256502557067797 ] } },
{ "type": "Feature", "properties": { "OBJECTID": 24, "NAME": "Ancaster Aquatic Centre", "ADDRESS": "47 Meadowbrook Drive" }, "geometry": { "type": "Point", "coordinates": [ -80.006282983281295, 43.215168797948998 ] } },
{ "type": "Feature", "properties": { "OBJECTID": 25, "NAME": "Ancaster Rotary Centre", "ADDRESS": "385 Jerseyville Road West" }, "geometry": { "type": "Point", "coordinates": [ -80.008379157678107, 43.217859363636798 ] } },
{ "type": "Feature", "properties": { "OBJECTID": 26, "NAME": "Beasley Community Centre", "ADDRESS": "145 Wilson Street" }, "geometry": { "type": "Point", "coordinates": [ -79.861072241463006, 43.2572993413023 ] } },
{ "type": "Feature", "properties": { "OBJECTID": 27, "NAME": "Bennetto Community Centre", "ADDRESS": "450 Hughson Street North" }, "geometry": { "type": "Point", "coordinates": [ -79.860865098240296, 43.2702724989174 ] } },
{ "type": "Feature", "properties": { "OBJECTID": 28, "NAME": "Beverly Township Hall", "ADDRESS": "795 Old Highway No. 8" }, "geometry": { "type": "Point", "coordinates": [ -80.126633044387901, 43.300472072819197 ] } },
{ "type": "Feature", "properties": { "OBJECTID": 29, "NAME": "Binbrook Memorial Hall", "ADDRESS": "2600 Regional Road 56" }, "geometry": { "type": "Point", "coordinates": [ -79.804037846924402, 43.123005532159702 ] } },
{ "type": "Feature", "properties": { "OBJECTID": 30, "NAME": "H.G. Brewster Pool", "ADDRESS": "206 Dewitt Road" }, "geometry": { "type": "Point", "coordinates": [ -79.711543338517799, 43.2180999124799 ] } },
{ "type": "Feature", "properties": { "OBJECTID": 31, "NAME": "Central Memorial Recreation Centre", "ADDRESS": "93 West Avenue South" }, "geometry": { "type": "Point", "coordinates": [ -79.859242822712005, 43.249543289798702 ] } },
{ "type": "Feature", "properties": { "OBJECTID": 32, "NAME": "Club 60 Seniors", "ADDRESS": "6 King Street West" }, "geometry": { "type": "Point", "coordinates": [ -79.758342357889902, 43.217355036746298 ] } },
{ "type": "Feature", "properties": { "OBJECTID": 33, "NAME": "Dalewood Recreation Centre", "ADDRESS": "1152 Main Street West" }, "geometry": { "type": "Point", "coordinates": [ -79.913154580499196, 43.258363948147199 ] } },
{ "type": "Feature", "properties": { "OBJECTID": 34, "NAME": "Dundas Lions Memorial Community Centre", "ADDRESS": "10 Market Street South" }, "geometry": { "type": "Point", "coordinates": [ -79.963593597138399, 43.267379055413102 ] } },
{ "type": "Feature", "properties": { "OBJECTID": 35, "NAME": "Stoney Creek Lions Fruitland Community Centre", "ADDRESS": "14 Sherwood Park Road" }, "geometry": { "type": "Point", "coordinates": [ -79.704598996756999, 43.218536637392098 ] } },
{ "type": "Feature", "properties": { "OBJECTID": 36, "NAME": "Glanbrook Arena & Auditorium", "ADDRESS": "4300 Binbrook Road" }, "geometry": { "type": "Point", "coordinates": [ -79.838859029776998, 43.129720144067903 ] } },
{ "type": "Feature", "properties": { "OBJECTID": 37, "NAME": "Huntington Park Recreation Centre", "ADDRESS": "87 Brentwood Drive" }, "geometry": { "type": "Point", "coordinates": [ -79.829393387288903, 43.220747227194799 ] } },
{ "type": "Feature", "properties": { "OBJECTID": 38, "NAME": "Jimmy Thompson Pool", "ADDRESS": "1099 King Street East" }, "geometry": { "type": "Point", "coordinates": [ -79.830258563438306, 43.249391232071403 ] } },
{ "type": "Feature", "properties": { "OBJECTID": 39, "NAME": "East Kiwanis BGC Hamilton-Halton", "ADDRESS": "45 Ellis Avenue" }, "geometry": { "type": "Point", "coordinates": [ -79.810738385933305, 43.248554144305203 ] } },
{ "type": "Feature", "properties": { "OBJECTID": 40, "NAME": "Kiwanis Club of Hamilton", "ADDRESS": "200 Jones Road" }, "geometry": { "type": "Point", "coordinates": [ -79.6912760116372, 43.2134814999146 ] } },
{ "type": "Feature", "properties": { "OBJECTID": 41, "NAME": "Ancaster Lion's Outdoor Pool", "ADDRESS": "263 Jerseyville Road West" }, "geometry": { "type": "Point", "coordinates": [ -79.999699672689005, 43.218232498614903 ] } },
{ "type": "Feature", "properties": { "OBJECTID": 42, "NAME": "Millgrove Community Centre", "ADDRESS": "855 Milgrove Sideroad" }, "geometry": { "type": "Point", "coordinates": [ -79.959428025721394, 43.3351535932633 ] } },
{ "type": "Feature", "properties": { "OBJECTID": 43, "NAME": "Mount Hope Community Hall / Youth Centre", "ADDRESS": "3023 Homestead Drive" }, "geometry": { "type": "Point", "coordinates": [ -79.911428781556694, 43.160224690876497 ] } },
{ "type": "Feature", "properties": { "OBJECTID": 44, "NAME": "Eva Rothwell Resource Centre", "ADDRESS": "460 Wentworth Street North" }, "geometry": { "type": "Point", "coordinates": [ -79.842853076578294, 43.264863665676401 ] } },
{ "type": "Feature", "properties": { "OBJECTID": 45, "NAME": "Sheffield Community Hall", "ADDRESS": "2339 Concession 5 West" }, "geometry": { "type": "Point", "coordinates": [ -80.200743989513896, 43.297040675294497 ] } },
{ "type": "Feature", "properties": { "OBJECTID": 46, "NAME": "Sir Wilfrid Laurier Recreation Centre", "ADDRESS": "60 Albright Road" }, "geometry": { "type": "Point", "coordinates": [ -79.7867616638718, 43.217817102766602 ] } },
{ "type": "Feature", "properties": { "OBJECTID": 47, "NAME": "Sir Winston Churchill Recreation Centre", "ADDRESS": "1709 Main Street East" }, "geometry": { "type": "Point", "coordinates": [ -79.795714339951402, 43.237558499789102 ] } },
{ "type": "Feature", "properties": { "OBJECTID": 48, "NAME": "Stoney Creek Optimist Community Centre", "ADDRESS": "890 Queenston Road" }, "geometry": { "type": "Point", "coordinates": [ -79.758527686468696, 43.225740892770503 ] } },
{ "type": "Feature", "properties": { "OBJECTID": 49, "NAME": "Redeemer Sports Complex", "ADDRESS": "777 Garner Road East" }, "geometry": { "type": "Point", "coordinates": [ -79.952001623982596, 43.212106302694998 ] } },
{ "type": "Feature", "properties": { "OBJECTID": 50, "NAME": "Ancaster Senior Achievement Centre (ASAC)", "ADDRESS": "622 Alberton Road" }, "geometry": { "type": "Point", "coordinates": [ -80.070583721119107, 43.184538174846999 ] } },
{ "type": "Feature", "properties": { "OBJECTID": 51, "NAME": "Valens Community Hall", "ADDRESS": "1818 Valens Road" }, "geometry": { "type": "Point", "coordinates": [ -80.130769877786904, 43.383633154716001 ] } },
{ "type": "Feature", "properties": { "OBJECTID": 52, "NAME": "Lynden Lions Community Centre", "ADDRESS": "4070 Governor's Road" }, "geometry": { "type": "Point", "coordinates": [ -80.147808706019603, 43.2269157946631 ] } },
{ "type": "Feature", "properties": { "OBJECTID": 53, "NAME": "Valley Park Community Centre", "ADDRESS": "970 Paramount Drive" }, "geometry": { "type": "Point", "coordinates": [ -79.798105835167704, 43.1929042371492 ] } },
{ "type": "Feature", "properties": { "OBJECTID": 54, "NAME": "Waterdown Memorial Hall", "ADDRESS": "317 Dundas Street East" }, "geometry": { "type": "Point", "coordinates": [ -79.892591530298503, 43.334087130827001 ] } },
{ "type": "Feature", "properties": { "OBJECTID": 55, "NAME": "Westmount Recreation Centre", "ADDRESS": "35 Lynbrook Drive" }, "geometry": { "type": "Point", "coordinates": [ -79.894316130499703, 43.228372661550502 ] } },
{ "type": "Feature", "properties": { "OBJECTID": 56, "NAME": "Winona Scout Hall", "ADDRESS": "1328 Barton Street" }, "geometry": { "type": "Point", "coordinates": [ -79.645642566888398, 43.209695298304297 ] } },
{ "type": "Feature", "properties": { "OBJECTID": 57, "NAME": "Winona Senior Citizens Centre", "ADDRESS": "1239 Highway No. 8" }, "geometry": { "type": "Point", "coordinates": [ -79.653084868828998, 43.208744385270201 ] } },
{ "type": "Feature", "properties": { "OBJECTID": 58, "NAME": "Woodburn Centennial Hall", "ADDRESS": "1062 Golf Club Road" }, "geometry": { "type": "Point", "coordinates": [ -79.742806341046702, 43.146568905414199 ] } },
{ "type": "Feature", "properties": { "OBJECTID": 59, "NAME": "YMCA - Hamilton Downtown Family", "ADDRESS": "79 James Street South" }, "geometry": { "type": "Point", "coordinates": [ -79.869884233626493, 43.254323269692797 ] } },
{ "type": "Feature", "properties": { "OBJECTID": 60, "NAME": "Mountsberg Hall", "ADDRESS": "2133 Centre Road" }, "geometry": { "type": "Point", "coordinates": [ -80.042091717151095, 43.434226461998101 ] } },
{ "type": "Feature", "properties": { "OBJECTID": 61, "NAME": "Sackville Hill Seniors Recreation Centre", "ADDRESS": "780 Upper Wentworth Street" }, "geometry": { "type": "Point", "coordinates": [ -79.862604266436193, 43.224476904321399 ] } },
{ "type": "Feature", "properties": { "OBJECTID": 62, "NAME": "Spring Valley Community Centre", "ADDRESS": "29 Orchard Drive" }, "geometry": { "type": "Point", "coordinates": [ -79.998032488159794, 43.217178048045497 ] } },
{ "type": "Feature", "properties": { "OBJECTID": 63, "NAME": "YMCA - Flamborough Family", "ADDRESS": "207 Parkside Drive" }, "geometry": { "type": "Point", "coordinates": [ -79.911572153454301, 43.332864138404197 ] } },
{ "type": "Feature", "properties": { "OBJECTID": 64, "NAME": "YWCA Hamilton Active Living Centre - MacNab Street", "ADDRESS": "75 MacNab Street South" }, "geometry": { "type": "Point", "coordinates": [ -79.8715648101293, 43.254230893919797 ] } },
{ "type": "Feature", "properties": { "OBJECTID": 65, "NAME": "Soccer World", "ADDRESS": "104 Frid Street" }, "geometry": { "type": "Point", "coordinates": [ -79.894139852289101, 43.257219649557797 ] } },
{ "type": "Feature", "properties": { "OBJECTID": 66, "NAME": "Mountain Sports Complex", "ADDRESS": "1185 Stone Church Road East" }, "geometry": { "type": "Point", "coordinates": [ -79.837071865110005, 43.198871949980997 ] } },
{ "type": "Feature", "properties": { "OBJECTID": 67, "NAME": "United Soccer Centre", "ADDRESS": "565 Seman Street" }, "geometry": { "type": "Point", "coordinates": [ -79.702480133937797, 43.231070276674998 ] } },
{ "type": "Feature", "properties": { "OBJECTID": 68, "NAME": "Lakeland Centre", "ADDRESS": "180 Van Wagners Beach Road" }, "geometry": { "type": "Point", "coordinates": [ -79.768323277134797, 43.262095591530098 ] } },
{ "type": "Feature", "properties": { "OBJECTID": 69, "NAME": "Stoney Creek Recreation Centre", "ADDRESS": "45 King Street West" }, "geometry": { "type": "Point", "coordinates": [ -79.763060246172003, 43.217630505410199 ] } },
{ "type": "Feature", "properties": { "OBJECTID": 70, "NAME": "David Braley Athletic Centre - McMaster University", "ADDRESS": "1280 Main Street West" }, "geometry": { "type": "Point", "coordinates": [ -79.916165389103497, 43.265043642297101 ] } },
{ "type": "Feature", "properties": { "OBJECTID": 71, "NAME": "Norman Pinky Lewis Recreation Centre", "ADDRESS": "192 Wentworth Street North" }, "geometry": { "type": "Point", "coordinates": [ -79.845308069414898, 43.257046690358003 ] } },
{ "type": "Feature", "properties": { "OBJECTID": 72, "NAME": "Bernie Morelli Recreation Centre", "ADDRESS": "876 Cannon Street East" }, "geometry": { "type": "Point", "coordinates": [ -79.829974422335695, 43.2500471089268 ] } },
{ "type": "Feature", "properties": { "OBJECTID": 73, "NAME": "F.H. Sherman Recreation And Learning Centre", "ADDRESS": "388 First Road East" }, "geometry": { "type": "Point", "coordinates": [ -79.754007036565696, 43.195180107961697 ] } },
{ "type": "Feature", "properties": { "OBJECTID": 74, "NAME": "Hill Park Recreation Centre", "ADDRESS": "305 South Bend Road East" }, "geometry": { "type": "Point", "coordinates": [ -79.863125107812095, 43.227818504655197 ] } },
{ "type": "Feature", "properties": { "OBJECTID": 75, "NAME": "Greensville (West Flamborough Township) Hall", "ADDRESS": "283 Brock Road" }, "geometry": { "type": "Point", "coordinates": [ -79.988364836084699, 43.276846132684199 ] } }
]
}
