{
"type": "FeatureCollection",
"name": "Spray_Pads",
"crs": { "type": "name", "properties": { "name": "urn:ogc:def:crs:OGC:1.3:CRS84" } },
"features": [
{ "type": "Feature", "properties": { "OBJECTID": 1, "NAME": "Village Green Park", "ADDRESS": "291 Lodor Street", "COMMUNITY": "Ancaster", "WARD": "12", "OWNER": "City of Hamilton", "PHONE": "905-546-CITY(2489)", "GLOBALID": "519ff65b-fc86-4169-82ad-8a8cda02265b" }, "geometry": { "type": "Point", "coordinates": [ -79.975929044877802, 43.224865873055201 ] } },
{ "type": "Feature", "properties": { "OBJECTID": 2, "NAME": "Dundas Driving Park", "ADDRESS": "71 Cross Street", "COMMUNITY": "Dundas", "WARD": "13", "OWNER": "City of Hamilton", "PHONE": "905-546-CITY(2489)", "GLOBALID": "0f1168b5-f8f2-4438-bd39-2bcf56d320a1" }, "geometry": { "type": "Point", "coordinates": [ -79.951619274989199, 43.271361486732303 ] } },
{ "type": "Feature", "properties": { "OBJECTID": 3, "NAME": "Allison Neighbourhood Park", "ADDRESS": "51 Piano Drive", "COMMUNITY": "Hamilton", "WARD": "8", "OWNER": "City of Hamilton", "PHONE": "905-546-CITY(2489)", "GLOBALID": "3e25e246-9fa9-4eb8-8ca1-5d90c3694334" }, "geometry": { "type": "Point", "coordinates": [ -79.885949153302604, 43.197546817611702 ] } },
{ "type": "Feature", "properties": { "OBJECTID": 4, "NAME": "Fairfield Park", "ADDRESS": "1501 Barton Street East", "COMMUNITY": "Hamilton", "WARD": "4", "OWNER": "City of Hamilton", "PHONE": "905-546-CITY(2489)", "GLOBALID": "d4e1f133-75e7-4c40-95e6-8559746cc4b0" }, "geometry": { "type": "Point", "coordinates": [ -79.799010021416294, 43.247955380434902 ] } },
{ "type": "Feature", "properties": { "OBJECTID": 5, "NAME": "Hampton Park", "ADDRESS": "28 Lupin Avenue", "COMMUNITY": "Hamilton", "WARD": "6", "OWNER": "City of Hamilton", "PHONE": "905-546-CITY(2489)", "GLOBALID": "76fe403c-ab74-4f4f-9f55-158efbcc55b9" }, "geometry": { "type": "Point", "coordinates": [ -79.836253093301494, 43.223122689239098 ] } },
{ "type": "Feature", "properties": { "OBJECTID": 6, "NAME": "Jerome Neighbourhood Park", "ADDRESS": "1306 Upper Wellington Street", "COMMUNITY": "Hamilton", "WARD": "8", "OWNER": "City of Hamilton", "PHONE": "905-546-CITY(2489)", "GLOBALID": "325595d7-ee91-425b-9537-d7351ae7ce5c" }, "geometry": { "type": "Point", "coordinates": [ -79.878842594739993, 43.214054063273302 ] } },
{ "type": "Feature", "properties": { "OBJECTID": 7, "NAME": "North Central Community Park", "ADDRESS": "467 Wentworth Street North", "COMMUNITY": "Hamilton", "WARD": "3", "OWNER": "City of Hamilton", "PHONE": "905-546-CITY(2489)", "GLOBALID": "6456a19a-c7b8-4338-882e-37157ba8ce11" }, "geometry": { "type": "Point", "coordinates": [ -79.843620448296903, 43.265604316452396 ] } },
{ "type": "Feature", "properties": { "OBJECTID": 8, "NAME": "William Schwenger Park", "ADDRESS": "86 Claudette Gate", "COMMUNITY": "Hamilton", "WARD": "14", "OWNER": "City of Hamilton", "PHONE": "905-546-CITY(2489)", "GLOBALID": "afc09491-bc51-47fb-88f3-a074e00a2d11" }, "geometry": { "type": "Point", "coordinates": [ -79.914024485889001, 43.212401033066399 ] } },
{ "type": "Feature", "properties": { "OBJECTID": 9, "NAME": "Green Acres Park", "ADDRESS": "50 Randall Avenue", "COMMUNITY": "Stoney Creek", "WARD": "5", "OWNER": "City of Hamilton", "PHONE": "905-546-CITY(2489)", "GLOBALID": "7764e6c5-e0e8-471c-9057-a94f2bd2e496" }, "geometry": { "type": "Point", "coordinates": [ -79.762808121078905, 43.221757524952203 ] } },
{ "type": "Feature", "properties": { "OBJECTID": 10, "NAME": "Powell Park", "ADDRESS": "53 Birch Avenue", "COMMUNITY": "Hamilton", "WARD": "3", "OWNER": "City of Hamilton", "PHONE": "905-546-CITY(2489)", "GLOBALID": "21dab7ac-775c-4f0e-b0f3-75015ea581e7" }, "geometry": { "type": "Point", "coordinates": [ -79.840810887490605, 43.256070273185898 ] } },
{ "type": "Feature", "properties": { "OBJECTID": 11, "NAME": "Sam Manson Park", "ADDRESS": "80 Nash Road North", "COMMUNITY": "Hamilton", "WARD": "5", "OWNER": "City of Hamilton", "PHONE": "905-546-CITY(2489)", "GLOBALID": "abe0ac5c-dbbd-4ee7-ad73-dd81bdcf717d" }, "geometry": { "type": "Point", "coordinates": [ -79.7706664302588, 43.232931892015003 ] } },
{ "type": "Feature", "properties": { "OBJECTID": 12, "NAME": "Trenholme Park", "ADDRESS": "135 Trenholme Crescent", "COMMUNITY": "Hamilton", "WARD": "6", "OWNER": "City of Hamilton", "PHONE": "905-546-CITY(2489)", "GLOBALID": "30b1c46f-d33c-42d0-bd91-16e1ede8396d" }, "geometry": { "type": "Point", "coordinates": [ -79.827241532333304, 43.2016371240166 ] } },
{ "type": "Feature", "properties": { "OBJECTID": 13, "NAME": "Billy Sherring Park", "ADDRESS": "1530 Upper Sherman Avenue", "COMMUNITY": "Hamilton", "WARD": "7", "OWNER": "City of Hamilton", "PHONE": "905-546-CITY(2489)", "GLOBALID": "ee645b5f-fb0d-4ce9-83c0-6b7c6d5c992b" }, "geometry": { "type": "Point", "coordinates": [ -79.865167789278402, 43.199138170970102 ] } },
{ "type": "Feature", "properties": { "OBJECTID": 14, "NAME": "Carter Park", "ADDRESS": "32 Stinson Street", "COMMUNITY": "Hamilton", "WARD": "2", "OWNER": "City of Hamilton", "PHONE": "905-546-CITY(2489)", "GLOBALID": "c5d99a95-d481-4d9c-bdbd-f9c5a69a13eb" }, "geometry": { "type": "Point", "coordinates": [ -79.8601545042428, 43.248653936219398 ] } },
{ "type": "Feature", "properties": { "OBJECTID": 15, "NAME": "Heritage Green Sports Park", "ADDRESS": "355 First Road West", "COMMUNITY": "Stoney Creek", "WARD": "9", "OWNER": "City of Hamilton", "PHONE": "905-546-CITY(2489)", "GLOBALID": "5a121097-25d4-43b7-a06d-54f99e15bd39" }, "geometry": { "type": "Point", "coordinates": [ -79.781657910760501, 43.201019824534598 ] } },
{ "type": "Feature", "properties": { "OBJECTID": 16, "NAME": "Maplewood Park", "ADDRESS": "150 Second Road West", "COMMUNITY": "Stoney Creek", "WARD": "9", "OWNER": "City of Hamilton", "PHONE": "905-546-CITY(2489)", "GLOBALID": "d3523a29-6d20-470f-92c7-4a5c99255017" }, "geometry": { "type": "Point", "coordinates": [ -79.787912405762398, 43.186859860918503 ] } },
{ "type": "Feature", "properties": { "OBJECTID": 17, "NAME": "Oaklands Park", "ADDRESS": "141 Vittorito Avenue", "COMMUNITY": "Hamilton", "WARD": "5", "OWNER": "City of Hamilton", "PHONE": "905-546-CITY(2489)", "GLOBALID": "10693802-d7cc-4d13-82e7-90e372684892" }, "geometry": { "type": "Point", "coordinates": [ -79.746854437716493, 43.228071548566099 ] } },
{ "type": "Feature", "properties": { "OBJECTID": 18, "NAME": "Pier 4 Park", "ADDRESS": "64 Leander Drive", "COMMUNITY": "Hamilton", "WARD": "2", "OWNER": "City of Hamilton", "PHONE": "905-546-CITY(2489)", "GLOBALID": "d8d4977b-6310-4883-8dea-3ed1000aa98f" }, "geometry": { "type": "Point", "coordinates": [ -79.867411728491106, 43.273983547340102 ] } },
{ "type": "Feature", "properties": { "OBJECTID": 19, "NAME": "William Connell Park", "ADDRESS": "1086 West 5th Street", "COMMUNITY": "Hamilton", "WARD": "8", "OWNER": "City of Hamilton", "PHONE": "905-546-CITY(2489)", "GLOBALID": "cf08f383-b47c-4ca5-9801-4a7dcfa7ffef" }, "geometry": { "type": "Point", "coordinates": [ -79.896684544782801, 43.210115077946298 ] } },
{ "type": "Feature", "properties": { "OBJECTID": 21, "NAME": "Mount Hope Park", "ADDRESS": "3023 Homestead Drive", "COMMUNITY": "Glanbrook", "WARD": "11", "OWNER": "City of Hamilton", "PHONE": "905-546-CITY(2489)", "GLOBALID": "d358e888-760f-4d2b-8682-9e8a8e11b13a" }, "geometry": { "type": "Point", "coordinates": [ -79.911623275623796, 43.160118588138801 ] } },
{ "type": "Feature", "properties": { "OBJECTID": 22, "NAME": "Myrtle Park", "ADDRESS": "13 Delaware Avenue", "COMMUNITY": "Hamilton", "WARD": "3", "OWNER": "City of Hamilton", "PHONE": "905-546-CITY(2489)", "GLOBALID": "4d42d1bd-b1b9-4851-9207-8b3ce30e4425" }, "geometry": { "type": "Point", "coordinates": [ -79.849232240288003, 43.248484068610402 ] } },
{ "type": "Feature", "properties": { "OBJECTID": 23, "NAME": "Father Sean O'Sullivan Memorial Park", "ADDRESS": "1141 Greenhill Avenue", "COMMUNITY": "Hamilton", "WARD": "5", "OWNER": "City of Hamilton", "PHONE": "905-546-CITY(2489)", "GLOBALID": "95591bc5-1736-4882-9e0f-9f8425dfef36" }, "geometry": { "type": "Point", "coordinates": [ -79.776784070039895, 43.217045404146504 ] } },
{ "type": "Feature", "properties": { "OBJECTID": 24, "NAME": "Eleanor Park", "ADDRESS": "80 Presido Drive", "COMMUNITY": "Hamilton", "WARD": "6", "OWNER": "City of Hamilton", "PHONE": "905-546-CITY(2489)", "GLOBALID": "0c5213fd-18bd-4f97-90c7-1c380641ab54" }, "geometry": { "type": "Point", "coordinates": [ -79.855559456848596, 43.1982810937781 ] } },
{ "type": "Feature", "properties": { "OBJECTID": 25, "NAME": "Winona Park", "ADDRESS": "1328 Barton Street", "COMMUNITY": "Stoney Creek", "WARD": "10", "OWNER": "City of Hamilton", "PHONE": "905-546-CITY(2489)", "GLOBALID": "3b7be798-8eeb-4867-bb71-1e9f0e0d81e1" }, "geometry": { "type": "Point", "coordinates": [ -79.646353181550396, 43.209588989660702 ] } },
{ "type": "Feature", "properties": { "OBJECTID": 26, "NAME": "Bruce Park", "ADDRESS": "145 Brucedale Avenue", "COMMUNITY": "Hamilton", "WARD": "8", "OWNER": "City of Hamilton", "PHONE": "905-546-CITY(2489)", "GLOBALID": "b6cc9d34-0c7a-427e-991e-ca1ceb6e349e" }, "geometry": { "type": "Point", "coordinates": [ -79.870511808518202, 43.2395385500107 ] } },
{ "type": "Feature", "properties": { "OBJECTID": 27, "NAME": "Shawinigan Park", "ADDRESS": "1 Guildwood Drive", "COMMUNITY": "Hamilton", "WARD": "14", "OWNER": "City of Hamilton", "PHONE": "905-546-CITY(2489)", "GLOBALID": "e4c3704d-3758-4183-951c-9ccf7916c923" }, "geometry": { "type": "Point", "coordinates": [ -79.920385853584605, 43.222051062395103 ] } },
{ "type": "Feature", "properties": { "OBJECTID": 28, "NAME": "St. Christopher Park", "ADDRESS": "119 McAnulty Boulevard", "COMMUNITY": "Hamilton", "WARD": "4", "OWNER": "City of Hamilton", "PHONE": "905-546-CITY(2489)", "GLOBALID": "74dded98-9d28-41a2-86fa-099104c530bb" }, "geometry": { "type": "Point", "coordinates": [ -79.808599845156394, 43.254063066762399 ] } },
{ "type": "Feature", "properties": { "OBJECTID": 29, "NAME": "Veevers Park", "ADDRESS": "688 Greenhill Avenue", "COMMUNITY": "Hamilton", "WARD": "5", "OWNER": "City of Hamilton", "PHONE": "905-546-CITY(2489)", "GLOBALID": "d2d1ff64-3576-4709-99cf-18f6eaff5610" }, "geometry": { "type": "Point", "coordinates": [ -79.783755966951801, 43.209347358120198 ] } },
{ "type": "Feature", "properties": { "OBJECTID": 30, "NAME": "Waterford Park", "ADDRESS": "10 Waterford Crescent", "COMMUNITY": "Stoney Creek", "WARD": "10", "OWNER": "City of Hamilton", "PHONE": "905-546-CITY(2489)", "GLOBALID": "314c602a-d064-4a57-9778-9fb067eea086" }, "geometry": { "type": "Point", "coordinates": [ -79.690709339762094, 43.231535264750001 ] } },
{ "type": "Feature", "properties": { "OBJECTID": 31, "NAME": "Henry and Beatrice Warden Park", "ADDRESS": "55 Lake Avenue North", "COMMUNITY": "Hamilton", "WARD": "5", "OWNER": "City of Hamilton", "PHONE": "905-546-CITY(2489)", "GLOBALID": "b2954d1d-3ce9-493f-82ff-c15246132bb4" }, "geometry": { "type": "Point", "coordinates": [ -79.755930726372696, 43.2282003528384 ] } },
{ "type": "Feature", "properties": { "OBJECTID": 32, "NAME": "Buchanan Park", "ADDRESS": "111 Columbia Drive", "COMMUNITY": "Hamilton", "WARD": "8", "OWNER": "City of Hamilton", "PHONE": "905-546-CITY(2489)", "GLOBALID": "16d5b36e-02a4-420a-a16a-20099c084030" }, "geometry": { "type": "Point", "coordinates": [ -79.889628000301997, 43.2338047190214 ] } },
{ "type": "Feature", "properties": { "OBJECTID": 33, "NAME": "Durand Park", "ADDRESS": "250 Park Street South", "COMMUNITY": "Hamilton", "WARD": "2", "OWNER": "City of Hamilton", "PHONE": "905-546-CITY(2489)", "GLOBALID": "cd728b1d-ab37-4e79-95df-987ef98bffb1" }, "geometry": { "type": "Point", "coordinates": [ -79.875616586671995, 43.250298383808797 ] } },
{ "type": "Feature", "properties": { "OBJECTID": 34, "NAME": "Alexander Park", "ADDRESS": "201 Whitney Avenue", "COMMUNITY": "Hamilton", "WARD": "1", "OWNER": "City of Hamilton", "PHONE": "905-546-CITY(2489)", "GLOBALID": "131980db-69e4-4b39-baa8-86f4c961a715" }, "geometry": { "type": "Point", "coordinates": [ -79.927134251146498, 43.252875017767501 ] } },
{ "type": "Feature", "properties": { "OBJECTID": 35, "NAME": "Waterdown Memorial Park", "ADDRESS": "200 Hamilton Street North", "COMMUNITY": "Flamborough", "WARD": "15", "OWNER": "City of Hamilton", "PHONE": "905-546-CITY(2489)", "GLOBALID": "1e4374a7-31e0-4933-8225-e47b2d46c97a" }, "geometry": { "type": "Point", "coordinates": [ -79.901327501070796, 43.336885010103401 ] } },
{ "type": "Feature", "properties": { "OBJECTID": 36, "NAME": "H.A.A.A. Grounds", "ADDRESS": "250 Charlton Avenue West", "COMMUNITY": "Hamilton", "WARD": "1", "OWNER": "City of Hamilton", "PHONE": "905-546-CITY(2489)", "GLOBALID": "e738d364-164a-4add-acda-5789785a4d6c" }, "geometry": { "type": "Point", "coordinates": [ -79.884310069485494, 43.253455032797198 ] } },
{ "type": "Feature", "properties": { "OBJECTID": 37, "NAME": "Victoria Park", "ADDRESS": "516 King Street West", "COMMUNITY": "Hamilton", "WARD": "1", "OWNER": "City of Hamilton", "PHONE": "905-546-CITY(2489)", "GLOBALID": "e67cfa5b-3410-4cf9-b705-92d00947e8f8" }, "geometry": { "type": "Point", "coordinates": [ -79.883298521271797, 43.263750876198898 ] } },
{ "type": "Feature", "properties": { "OBJECTID": 38, "NAME": "Beasley Park", "ADDRESS": "96 Mary Street", "COMMUNITY": "Hamilton", "WARD": "2", "OWNER": "City of Hamilton", "PHONE": "905-546-CITY(2489)", "GLOBALID": "bb21b493-46d4-473a-9884-6cdaab7515b1" }, "geometry": { "type": "Point", "coordinates": [ -79.862438054406795, 43.2578575927011 ] } },
{ "type": "Feature", "properties": { "OBJECTID": 39, "NAME": "Central Park", "ADDRESS": "168 Bay Street North", "COMMUNITY": "Hamilton", "WARD": "2", "OWNER": "City of Hamilton", "PHONE": "905-546-CITY(2489)", "GLOBALID": "426c39c0-d7a1-406c-a5d7-8d5b0093cdaf" }, "geometry": { "type": "Point", "coordinates": [ -79.873426636088595, 43.263957089889203 ] } },
{ "type": "Feature", "properties": { "OBJECTID": 40, "NAME": "Eastwood Park (Arena)", "ADDRESS": "111 Burlington Street East", "COMMUNITY": "Hamilton", "WARD": "2", "OWNER": "City of Hamilton", "PHONE": "905-546-CITY(2489)", "GLOBALID": "d809e755-171e-47fe-82d9-fa6149be9229" }, "geometry": { "type": "Point", "coordinates": [ -79.855667530545702, 43.273461225257499 ] } },
{ "type": "Feature", "properties": { "OBJECTID": 41, "NAME": "McLaren Park", "ADDRESS": "160 John Street North", "COMMUNITY": "Hamilton", "WARD": "2", "OWNER": "City of Hamilton", "PHONE": "905-546-CITY(2489)", "GLOBALID": "34ef4884-441e-46fd-b38e-9e2dbb69f817" }, "geometry": { "type": "Point", "coordinates": [ -79.864128093838303, 43.2607779950214 ] } },
{ "type": "Feature", "properties": { "OBJECTID": 42, "NAME": "Belview Park", "ADDRESS": "205 Belmont Avenue", "COMMUNITY": "Hamilton", "WARD": "3", "OWNER": "City of Hamilton", "PHONE": "905-546-CITY(2489)", "GLOBALID": "738d5a47-4365-4759-92aa-82d78bd62039" }, "geometry": { "type": "Point", "coordinates": [ -79.822503385195802, 43.250219347344299 ] } },
{ "type": "Feature", "properties": { "OBJECTID": 43, "NAME": "Lucy Day Park", "ADDRESS": "33 Clinton Street", "COMMUNITY": "Hamilton", "WARD": "3", "OWNER": "City of Hamilton", "PHONE": "905-546-CITY(2489)", "GLOBALID": "2537db3b-5dad-458f-896d-0e54b9dc030e" }, "geometry": { "type": "Point", "coordinates": [ -79.833586858882995, 43.257776403471198 ] } },
{ "type": "Feature", "properties": { "OBJECTID": 44, "NAME": "Andy Warburton Memorial Park", "ADDRESS": "199 Tragina Avenue North", "COMMUNITY": "Hamilton", "WARD": "4", "OWNER": "City of Hamilton", "PHONE": "905-546-CITY(2489)", "GLOBALID": "a7dc47c3-9d48-4dcc-bc30-9f191752fefe" }, "geometry": { "type": "Point", "coordinates": [ -79.802554405381699, 43.245212108968801 ] } },
{ "type": "Feature", "properties": { "OBJECTID": 45, "NAME": "Montgomery Park", "ADDRESS": "1570 Main Street East", "COMMUNITY": "Hamilton", "WARD": "4", "OWNER": "City of Hamilton", "PHONE": "905-546-CITY(2489)", "GLOBALID": "d1559103-fa95-4a86-aa70-2f718eaf0f6f" }, "geometry": { "type": "Point", "coordinates": [ -79.803119795200502, 43.237552897687401 ] } },
{ "type": "Feature", "properties": { "OBJECTID": 46, "NAME": "Roxborough Park", "ADDRESS": "70 Reid Avenue North", "COMMUNITY": "Hamilton", "WARD": "4", "OWNER": "City of Hamilton", "PHONE": "905-546-CITY(2489)", "GLOBALID": "f501a365-33f6-4042-b4dd-df1dfd6fef96" }, "geometry": { "type": "Point", "coordinates": [ -79.786389015407806, 43.236317806883598 ] } },
{ "type": "Feature", "properties": { "OBJECTID": 47, "NAME": "Woodward Park", "ADDRESS": "589 Woodward Avenue", "COMMUNITY": "Hamilton", "WARD": "4", "OWNER": "City of Hamilton", "PHONE": "905-546-CITY(2489)", "GLOBALID": "55c7bcd0-5086-4cbc-aa7b-7e6496b77a0a" }, "geometry": { "type": "Point", "coordinates": [ -79.777327563747306, 43.250110190849597 ] } },
{ "type": "Feature", "properties": { "OBJECTID": 48, "NAME": "Glendale Park", "ADDRESS": "255 Rainbow Drive", "COMMUNITY": "Hamilton", "WARD": "5", "OWNER": "City of Hamilton", "PHONE": "905-546-CITY(2489)", "GLOBALID": "6e1ff89e-6e68-41b9-8e55-fc788ae86fc7" }, "geometry": { "type": "Point", "coordinates": [ -79.779022782375193, 43.223855656982202 ] } },
{ "type": "Feature", "properties": { "OBJECTID": 49, "NAME": "Berrisfield Park", "ADDRESS": "125 Birchcliffe Crescent", "COMMUNITY": "Hamilton", "WARD": "6", "OWNER": "City of Hamilton", "PHONE": "905-546-CITY(2489)", "GLOBALID": "bca24c19-ae35-4d69-ab90-ab6eeedb229e" }, "geometry": { "type": "Point", "coordinates": [ -79.840018552450005, 43.210831562938203 ] } },
{ "type": "Feature", "properties": { "OBJECTID": 50, "NAME": "Broughton Park East", "ADDRESS": "990 Rymal Road East", "COMMUNITY": "Hamilton", "WARD": "6", "OWNER": "City of Hamilton", "PHONE": "905-546-CITY(2489)", "GLOBALID": "b9592190-dc33-40e1-a733-586be4bc600b" }, "geometry": { "type": "Point", "coordinates": [ -79.849800515112307, 43.189332394103999 ] } },
{ "type": "Feature", "properties": { "OBJECTID": 51, "NAME": "Highview Park", "ADDRESS": "879 Brucedale Avenue East", "COMMUNITY": "Hamilton", "WARD": "6", "OWNER": "City of Hamilton", "PHONE": "905-546-CITY(2489)", "GLOBALID": "8e884b55-aaf4-49dc-bc0a-574e57fe82e8" }, "geometry": { "type": "Point", "coordinates": [ -79.832669544279199, 43.229303018285997 ] } },
{ "type": "Feature", "properties": { "OBJECTID": 52, "NAME": "Huntington Park (Recreation Centre)", "ADDRESS": "87 Brentwood Drive", "COMMUNITY": "Hamilton", "WARD": "6", "OWNER": "City of Hamilton", "PHONE": "905-546-CITY(2489)", "GLOBALID": "5582a815-00ad-41f9-9232-1080092be92e" }, "geometry": { "type": "Point", "coordinates": [ -79.828665009097904, 43.2211184332172 ] } },
{ "type": "Feature", "properties": { "OBJECTID": 53, "NAME": "Lisgar Park", "ADDRESS": "95 Carson Drive", "COMMUNITY": "Hamilton", "WARD": "6", "OWNER": "City of Hamilton", "PHONE": "905-546-CITY(2489)", "GLOBALID": "f46a0417-d9ee-404c-ab3a-ac31761116fd" }, "geometry": { "type": "Point", "coordinates": [ -79.830810458570099, 43.210532074401598 ] } },
{ "type": "Feature", "properties": { "OBJECTID": 54, "NAME": "Macassa Park", "ADDRESS": "777 Upper Sherman Avenue", "COMMUNITY": "Hamilton", "WARD": "7", "OWNER": "City of Hamilton", "PHONE": "905-546-CITY(2489)", "GLOBALID": "c1a3e93d-24e9-47b0-bf00-5f77cdcfc3d4" }, "geometry": { "type": "Point", "coordinates": [ -79.846778512969195, 43.223708402242799 ] } },
{ "type": "Feature", "properties": { "OBJECTID": 55, "NAME": "Mount Lions Park", "ADDRESS": "450 Queen Victoria Drive", "COMMUNITY": "Hamilton", "WARD": "6", "OWNER": "City of Hamilton", "PHONE": "905-546-CITY(2489)", "GLOBALID": "1c379f76-a7e8-4ed8-9989-27e5440cd306" }, "geometry": { "type": "Point", "coordinates": [ -79.845353287562304, 43.203204110880002 ] } },
{ "type": "Feature", "properties": { "OBJECTID": 56, "NAME": "Templemead Park", "ADDRESS": "30 Independence Drive", "COMMUNITY": "Hamilton", "WARD": "6", "OWNER": "City of Hamilton", "PHONE": "905-546-CITY(2489)", "GLOBALID": "e543434d-2758-4461-a571-690989719960" }, "geometry": { "type": "Point", "coordinates": [ -79.844830169306505, 43.1966367417632 ] } },
{ "type": "Feature", "properties": { "OBJECTID": 57, "NAME": "Eastmount Park", "ADDRESS": "115 East 26th Street", "COMMUNITY": "Hamilton", "WARD": "7", "OWNER": "City of Hamilton", "PHONE": "905-546-CITY(2489)", "GLOBALID": "de67134e-862c-4107-a66a-4115b437bc0e" }, "geometry": { "type": "Point", "coordinates": [ -79.8483637060842, 43.236245110697503 ] } },
{ "type": "Feature", "properties": { "OBJECTID": 58, "NAME": "Elmar Park", "ADDRESS": "140 Brigade Drive", "COMMUNITY": "Hamilton", "WARD": "7", "OWNER": "City of Hamilton", "PHONE": "905-546-CITY(2489)", "GLOBALID": "17e63621-f2b8-4128-a7bf-469d15b716b7" }, "geometry": { "type": "Point", "coordinates": [ -79.875577115044706, 43.203189703139699 ] } },
{ "type": "Feature", "properties": { "OBJECTID": 59, "NAME": "Rushdale Park", "ADDRESS": "130 Southpark Avenue", "COMMUNITY": "Hamilton", "WARD": "7", "OWNER": "City of Hamilton", "PHONE": "905-546-CITY(2489)", "GLOBALID": "ad0d2750-24be-4ece-8737-8287f16ce5e9" }, "geometry": { "type": "Point", "coordinates": [ -79.863790403907799, 43.209620411938197 ] } },
{ "type": "Feature", "properties": { "OBJECTID": 60, "NAME": "Gilkson Park", "ADDRESS": "50 Gemini Drive", "COMMUNITY": "Hamilton", "WARD": "14", "OWNER": "City of Hamilton", "PHONE": "905-546-CITY(2489)", "GLOBALID": "ed18348d-93e4-4402-b9dd-8124047cc98b" }, "geometry": { "type": "Point", "coordinates": [ -79.912216776808094, 43.221438215174899 ] } },
{ "type": "Feature", "properties": { "OBJECTID": 61, "NAME": "Gourley Park", "ADDRESS": "142 Duncairn Crescent", "COMMUNITY": "Hamilton", "WARD": "8", "OWNER": "City of Hamilton", "PHONE": "905-546-CITY(2489)", "GLOBALID": "788be603-3052-48f7-8bbb-2027e34d20c9" }, "geometry": { "type": "Point", "coordinates": [ -79.900060803071298, 43.218412335368797 ] } },
{ "type": "Feature", "properties": { "OBJECTID": 62, "NAME": "Kennedy East Park", "ADDRESS": "130 Malton Drive", "COMMUNITY": "Hamilton", "WARD": "8", "OWNER": "City of Hamilton", "PHONE": "905-546-CITY(2489)", "GLOBALID": "3c7b31b4-04b4-48e0-bd5e-0bb23d89a707" }, "geometry": { "type": "Point", "coordinates": [ -79.902040470410896, 43.2021203657375 ] } },
{ "type": "Feature", "properties": { "OBJECTID": 63, "NAME": "Mountview Park", "ADDRESS": "115 San Antonio Drive", "COMMUNITY": "Hamilton", "WARD": "14", "OWNER": "City of Hamilton", "PHONE": "905-546-CITY(2489)", "GLOBALID": "a1f97845-559f-4d7e-b0ae-1149d2dff719" }, "geometry": { "type": "Point", "coordinates": [ -79.925389572551794, 43.239282396860801 ] } },
{ "type": "Feature", "properties": { "OBJECTID": 64, "NAME": "William McCulloch Park", "ADDRESS": "200 Bonaventure Drive", "COMMUNITY": "Hamilton", "WARD": "14", "OWNER": "City of Hamilton", "PHONE": "905-546-CITY(2489)", "GLOBALID": "f7c83efd-de0d-4a96-9825-ca4316f3aaf5" }, "geometry": { "type": "Point", "coordinates": [ -79.907837845914599, 43.229030485323698 ] } },
{ "type": "Feature", "properties": { "OBJECTID": 65, "NAME": "Gage Park", "ADDRESS": "1000 Main Street East", "COMMUNITY": "Hamilton", "WARD": "3", "OWNER": "City of Hamilton", "PHONE": "905-546-CITY(2489)", "GLOBALID": "726eaa2b-0ccc-4d91-88be-f35fc0ab0f7c" }, "geometry": { "type": "Point", "coordinates": [ -79.829850179275297, 43.2431052873536 ] } },
{ "type": "Feature", "properties": { "OBJECTID": 66, "NAME": "Jack C. Beemer Park", "ADDRESS": "68 Victoria Avenue North", "COMMUNITY": "Hamilton", "WARD": "3", "OWNER": "City of Hamilton", "PHONE": "905-546-CITY(2489)", "GLOBALID": "077009f2-6a5d-43b5-b8b1-8766a2cf4be9" }, "geometry": { "type": "Point", "coordinates": [ -79.855263792882496, 43.255168409306101 ] } },
{ "type": "Feature", "properties": { "OBJECTID": 67, "NAME": "Churchill Park", "ADDRESS": "250 Glen Road", "COMMUNITY": "Hamilton", "WARD": "1", "OWNER": "City of Hamilton", "PHONE": "905-546-CITY(2489)", "GLOBALID": "cc6e9f1f-0295-4a22-b590-252cbd4db0f4" }, "geometry": { "type": "Point", "coordinates": [ -79.903401477390702, 43.265184003230303 ] } },
{ "type": "Feature", "properties": { "OBJECTID": 68, "NAME": "Lawfield Park", "ADDRESS": "150 Folkestone Avenue", "COMMUNITY": "Hamilton", "WARD": "7", "OWNER": "City of Hamilton", "PHONE": "905-546-CITY(2489)", "GLOBALID": "1eca08bb-312a-4a45-8874-909f64b30ac8" }, "geometry": { "type": "Point", "coordinates": [ -79.8503228943691, 43.214634538470698 ] } },
{ "type": "Feature", "properties": { "OBJECTID": 69, "NAME": "Fairgrounds Community Park", "ADDRESS": "305 Fall Fair Way", "COMMUNITY": "Glanbrook", "WARD": "11", "OWNER": "City of Hamilton", "PHONE": "905-546-CITY(2489)", "GLOBALID": "32ee82fd-5dc5-4020-be33-596bb3b2d762" }, "geometry": { "type": "Point", "coordinates": [ -79.812806964502002, 43.1240491878931 ] } }
]
}
